"site_id","study_id","project_number","Site_name","Country","River","Data_owner","Longitude_X","Latitude_Y","sampling_method_long","unit","Dataset.ID","Unique.ID","Longitude_X2","Latitude_Y2","Site_ID_original","be_method"
116000004,"Austria_1",36,"Hainburg_AT_DO2","Austria","Donau","Astrid Schmidt-Kloiber; Patrick Leitner",16.99131672,48.16387722,"AQEM/20","Ind/m^2","AUT_001_MZB_LO","AUT_001_MZB_LO_2",16.9913167204313,48.1638772185017,"AT_DO2",NA
116000007,"Austria_1",36,"Groﬂharras_AT_PU1","Austria","Pulkau","Astrid Schmidt-Kloiber; Patrick Leitner",16.249858,48.719017,"AQEM/20","Ind/m^2","AUT_001_MZB_LO","AUT_001_MZB_LO_7",16.889066598082,48.7162573294799,"AT_PU1",NA
121000003,"Belgium_1_1",41,"757000_REIGERBEEK","Belgium","REIGERBEEK","Marie Anne Eurie Forio",3.46189281,51.02102642,"Handnet","Ind/sample","BEL_005_MZB_LO","BEL_005_MZB_LO_215",3.4643779,51.0215649,"BEVL_VMM_757000","Handnet"
121000004,"Belgium_1_1",41,"756000_NEERSCHUURBEEK","Belgium","NEERSCHUURBEEK","Marie Anne Eurie Forio",3.51817773,51.02879884,"Handnet","Ind/sample","BEL_005_MZB_LO","BEL_005_MZB_LO_214",3.5206662,51.029337,"BEVL_VMM_756000","Handnet"
121000005,"Belgium_1_1",41,"531110_MOLENBEEK - PACHTBOSBEEK L1","Belgium","MOLENBEEK - PACHTBOSBEEK L1","Marie Anne Eurie Forio",3.89853166,50.81061274,"Handnet","Ind/sample","BEL_005_MZB_LO","BEL_005_MZB_LO_171",3.9010356,50.8111366,"BEVL_VMM_531110","Handnet"
121000007,"Belgium_1_1",41,"495300_ZELEBEEK","Belgium","ZELEBEEK","Marie Anne Eurie Forio",4.02778561,51.08598412,"Handnet","Ind/sample","BEL_005_MZB_LO","BEL_005_MZB_LO_159",4.0303049,51.086519,"BEVL_VMM_495300","Handnet"
121000009,"Belgium_1_1",41,"485200_IJSE L1","Belgium","IJSE L1","Marie Anne Eurie Forio",4.4239795,50.76354122,"Handnet","Ind/sample","BEL_005_MZB_LO","BEL_005_MZB_LO_154",4.4265118,50.7640568,"BEVL_VMM_485200",NA
121000010,"Belgium_1_1",41,"84000_LEYLOOP","Belgium","LEYLOOP","Marie Anne Eurie Forio",5.0305485,51.48664096,"Handnet","Ind/sample","BEL_005_MZB_LO","BEL_005_MZB_LO_232",5.0331371,51.4871821,"BEVL_VMM_84000","Handnet"
121000011,"Belgium_1_1",41,"86000_DE AA (RAVELS)","Belgium","DE AA (RAVELS)","Marie Anne Eurie Forio",5.07523756,51.47102375,"Handnet","Ind/sample","BEL_005_MZB_LO","BEL_005_MZB_LO_244",5.0778282,51.4715636,"BEVL_VMM_86000","Handnet"
121000013,"Belgium_1_1",41,"76800_BLAUWPUTTEN EN LEILOOP","Belgium","BLAUWPUTTEN EN LEILOOP","Marie Anne Eurie Forio",4.75096398,51.49657186,"Handnet","Ind/sample","BEL_005_MZB_LO","BEL_005_MZB_LO_217",4.7535369,51.4971168,"BEVL_VMM_76800","Handnet"
121000015,"Belgium_1_1",41,"81000_MERKSKE L1","Belgium","MERKSKE L1","Marie Anne Eurie Forio",4.84406109,51.41542145,"Handnet","Ind/sample","BEL_005_MZB_LO","BEL_005_MZB_LO_226",4.8466368,51.4159616,"BEVL_VMM_81000","Handnet"
121000016,"Belgium_1_1",41,"82000_MERKSKE L1","Belgium","MERKSKE L1","Marie Anne Eurie Forio",4.86817045,51.40665821,"Handnet","Ind/sample","BEL_005_MZB_LO","BEL_005_MZB_LO_229",4.8707473,51.4071977,"BEVL_VMM_82000","Handnet"
121000017,"Belgium_1_1",41,"74000_MARK L1","Belgium","MARK L1","Marie Anne Eurie Forio",4.82463116,51.38065348,"Handnet","Ind/sample","BEL_005_MZB_LO","BEL_005_MZB_LO_208",4.8272047,51.3811923,"BEVL_VMM_74000","Handnet"
121000019,"Belgium_1_1",41,"281000_MOLENBEEK - BOLLAAK L1","Belgium","MOLENBEEK - BOLLAAK L1","Marie Anne Eurie Forio",4.7453444,51.24209891,"Handnet","Ind/sample","BEL_005_MZB_LO","BEL_005_MZB_LO_78",4.7479092,51.2426324,"BEVL_VMM_281000",NA
121000021,"Belgium_1_1",41,"299000_GROTE CALIE","Belgium","GROTE CALIE","Marie Anne Eurie Forio",4.87206999,51.23143308,"Handnet","Ind/sample","BEL_005_MZB_LO","BEL_005_MZB_LO_89",4.8746416,51.2319646,"BEVL_VMM_299000","Handnet"
121000028,"Belgium_1_1",41,"305000_WAMP L1","Belgium","WAMP L1","Marie Anne Eurie Forio",5.00591597,51.24627238,"Handnet","Ind/sample","BEL_005_MZB_LO","BEL_005_MZB_LO_94",5.0084957,51.2468029,"BEVL_VMM_305000","Handnet"
121000029,"Belgium_1_1",41,"305500_WAMP L1","Belgium","WAMP L1","Marie Anne Eurie Forio",5.05891188,51.30276154,"Handnet","Ind/sample","BEL_005_MZB_LO","BEL_005_MZB_LO_95",5.0614963,51.303294,"BEVL_VMM_305500","Handnet"
121000034,"Belgium_1_1",41,"93800_DOMMEL L1","Belgium","DOMMEL L1","Marie Anne Eurie Forio",5.42569636,51.14065971,"Handnet","Ind/sample","BEL_005_MZB_LO","BEL_005_MZB_LO_264",5.4282965,51.1411803,"BEVL_VMM_93800","Handnet"
121000040,"Belgium_1_1",41,"719600_ZWALMBEEK","Belgium","ZWALMBEEK","Marie Anne Eurie Forio",3.77157405,50.82309825,"Handnet","Ind/sample","BEL_005_MZB_LO","BEL_005_MZB_LO_199",3.7740711,50.8236242,"BEVL_VMM_719600","Handnet"
121000042,"Belgium_1_1",41,"44000_LANGELEDE","Belgium","LANGELEDE","Marie Anne Eurie Forio",3.84588034,51.1692193,"Handnet","Ind/sample","BEL_005_MZB_LO","BEL_005_MZB_LO_138",3.8483916,51.1697601,"BEVL_VMM_44000","Handnet"
121000044,"Belgium_1_1",41,"45500_WATERGANG VAN DE MOERBEKEPOLDER","Belgium","WATERGANG VAN DE MOERBEKEPOLDER","Marie Anne Eurie Forio",3.92031528,51.21509458,"Handnet","Ind/sample","BEL_005_MZB_LO","BEL_005_MZB_LO_143",3.9228322,51.2156366,"BEVL_VMM_45500","Handnet"
121000045,"Belgium_1_1",41,"45600_WATERGANG VAN DE MOERBEKEPOLDER","Belgium","WATERGANG VAN DE MOERBEKEPOLDER","Marie Anne Eurie Forio",3.9203121,51.22140425,"Handnet","Ind/sample","BEL_005_MZB_LO","BEL_005_MZB_LO_145",3.9228292,51.2219466,"BEVL_VMM_45600","Handnet"
121000047,"Belgium_1_1",41,"70000_WEHAGENBEEK","Belgium","WEHAGENBEEK","Marie Anne Eurie Forio",4.63997286,51.41630879,"Handnet","Ind/sample","BEL_005_MZB_LO","BEL_005_MZB_LO_197",4.642537,51.4168515,"BEVL_VMM_70000","Handnet"
121000049,"Belgium_1_1",41,"182200_GROOT SCHIJN L1","Belgium","GROOT SCHIJN L1","Marie Anne Eurie Forio",4.56025156,51.22084926,"Handnet","Ind/sample","BEL_005_MZB_LO","BEL_005_MZB_LO_44",4.5628052,51.221384,"BEVL_VMM_182200","Handnet"
121000053,"Belgium_1_1",41,"277000_KLEINE NETE L1","Belgium","KLEINE NETE L1","Marie Anne Eurie Forio",5.06665805,51.2390886,"Handnet","Ind/sample","BEL_005_MZB_LO","BEL_005_MZB_LO_71",5.069241,51.2396181,"BEVL_VMM_277000","Handnet"
121000059,"Belgium_1_1",41,"120000_WITBEEK","Belgium","WITBEEK","Marie Anne Eurie Forio",5.71887575,51.11918237,"Handnet","Ind/sample","BEL_005_MZB_LO","BEL_005_MZB_LO_11",5.7214918,51.1196984,"BEVL_VMM_120000","Handnet"
121000073,"Belgium_1_1",41,"336000_KLEINE HOOFDGRACHT","Belgium","KLEINE HOOFDGRACHT","Marie Anne Eurie Forio",5.17837466,51.15684839,"Handnet","Ind/sample","BEL_005_MZB_LO","BEL_005_MZB_LO_113",5.1809614,51.1573728,"BEVL_VMM_336000","Handnet"
121000075,"Belgium_1_1",41,"309000_DESSELSE NEET","Belgium","DESSELSE NEET","Marie Anne Eurie Forio",5.08378831,51.25430209,"Handnet","Ind/sample","BEL_005_MZB_LO","BEL_005_MZB_LO_102",5.0863727,51.2548321,"BEVL_VMM_309000","Handnet"
121000079,"Belgium_1_1",41,"790000_BURGGRAVENSTROOM","Belgium","BURGGRAVENSTROOM","Marie Anne Eurie Forio",3.69015463,51.16725212,"Handnet","Ind/sample","BEL_005_MZB_LO","BEL_005_MZB_LO_221",3.692657,51.1677947,"BEVL_VMM_790000","Handnet"
121000083,"Belgium_1_1",41,"13900_","Belgium","","Marie Anne Eurie Forio",3.71446931,51.26778863,"Handnet","Ind/sample","BEL_005_MZB_LO","BEL_005_MZB_LO_27",3.716976,51.2683355,"BEVL_VMM_13900","Handnet"
121000086,"Belgium_1_1",41,"46500_","Belgium","","Marie Anne Eurie Forio",3.98339119,51.23338208,"Handnet","Ind/sample","BEL_005_MZB_LO","BEL_005_MZB_LO_149",3.9859122,51.2339242,"BEVL_VMM_46500",NA
121000087,"Belgium_1_1",41,"58000_","Belgium","","Marie Anne Eurie Forio",3.81307486,51.21084779,"Handnet","Ind/sample","BEL_005_MZB_LO","BEL_005_MZB_LO_181",3.8155855,51.2113909,"BEVL_VMM_58000","Handnet"
121000094,"Belgium_1_1",41,"720570_","Belgium","SASSEGEMBEEK","Marie Anne Eurie Forio",3.72157122,50.77582724,"Handnet","Ind/sample","BEL_005_MZB_LO","BEL_005_MZB_LO_203",3.7240641,50.7763516,"BEVL_VMM_720570","Handnet"
121000096,"Belgium_1_1",41,"532190_","Belgium","","Marie Anne Eurie Forio",3.76880874,50.76155087,"Handnet","Ind/sample","BEL_005_MZB_LO","BEL_005_MZB_LO_174",3.7713039,50.762074,"BEVL_VMM_532190","Handnet"
121000103,"Belgium_1_1",41,"389000_","Belgium","","Marie Anne Eurie Forio",4.58943484,50.99285225,"Handnet","Ind/sample","BEL_005_MZB_LO","BEL_005_MZB_LO_119",4.5919832,50.9933763,"BEVL_VMM_389000","Handnet"
121000108,"Belgium_1_1",41,"262700_","Belgium","","Marie Anne Eurie Forio",5.36711807,51.13704468,"Handnet","Ind/sample","BEL_005_MZB_LO","BEL_005_MZB_LO_62",5.3697148,51.1375659,"BEVL_VMM_262700",NA
121000141,"Belgium_1_1",41,"289000_AA II","Belgium","AA II","Marie Anne Eurie Forio",4.81707605,51.20565248,"Handnet","Ind/sample","BEL_005_MZB_LO","BEL_005_MZB_LO_82",4.8196438,51.2061835,"BEVL_VMM_289000","Handnet"
121000142,"Belgium_1_1",41,"255000_GROTE NETE II","Belgium","GROTE NETE II","Marie Anne Eurie Forio",4.78542089,51.06152273,"Handnet","Ind/sample","BEL_005_MZB_LO","BEL_005_MZB_LO_55",4.7879825,51.0620476,"BEVL_VMM_255000","Handnet"
121000147,"Belgium_1_1",41,"315800_WIMP","Belgium","WIMP","Marie Anne Eurie Forio",4.73968134,51.1212792,"Handnet","Ind/sample","BEL_005_MZB_LO","BEL_005_MZB_LO_105",4.7422421,51.1218073,"BEVL_VMM_315800","Handnet"
121000151,"Belgium_1_1",41,"152500_BERWIJN","Belgium","BERWIJN","Marie Anne Eurie Forio",5.71083823,50.75627197,"Handnet","Ind/sample","BEL_005_MZB_LO","BEL_005_MZB_LO_35",5.7134425,50.7567717,"BEVL_VMM_152500","Handnet"
121000153,"Belgium_1_1",41,"134000_BOSBEEK","Belgium","BOSBEEK","Marie Anne Eurie Forio",5.8012993,51.10212577,"Handnet","Ind/sample","BEL_005_MZB_LO","BEL_005_MZB_LO_22",5.8039194,51.10264,"BEVL_VMM_134000",NA
121000154,"Belgium_1_1",41,"135000_BOSBEEK","Belgium","BOSBEEK","Marie Anne Eurie Forio",5.67115358,51.07619115,"Handnet","Ind/sample","BEL_005_MZB_LO","BEL_005_MZB_LO_23",5.6737656,51.0767058,"BEVL_VMM_135000","Handnet"
121000158,"Belgium_1_1",41,"114000_ITTERBEEK I","Belgium","ITTERBEEK I","Marie Anne Eurie Forio",5.78959067,51.15654886,"Handnet","Ind/sample","BEL_005_MZB_LO","BEL_005_MZB_LO_7",5.7922119,51.1570657,"BEVL_VMM_114000","Handnet"
121000160,"Belgium_1_1",41,"112000_LOSSING","Belgium","LOSSING","Marie Anne Eurie Forio",5.7769528,51.17120101,"Handnet","Ind/sample","BEL_005_MZB_LO","BEL_005_MZB_LO_6",5.7795737,51.1717187,"BEVL_VMM_112000","Handnet"
121000161,"Belgium_1_1",41,"80000_MERKSKE","Belgium","MERKSKE","Marie Anne Eurie Forio",4.77733315,51.42739034,"Handnet","Ind/sample","NLD_005_MZB_LO","NLD_005_MZB_LO_1",4.7799054,51.4279319,"BEVL_VMM_80000","Handnet"
121000162,"Belgium_1_1",41,"67000_WEERIJSEBEEK","Belgium","WEERIJSEBEEK","Marie Anne Eurie Forio",4.63860357,51.42056292,"Handnet","Ind/sample","BEL_005_MZB_LO","BEL_005_MZB_LO_189",4.6411677,51.4211058,"BEVL_VMM_67000","Handnet"
121000167,"Belgium_1_1",41,"800000_KANAAL LEUVEN-DIJLE","Belgium","KANAAL LEUVEN-DIJLE","Marie Anne Eurie Forio",4.43096506,51.05380833,"Handnet","Ind/sample","BEL_005_MZB_LO","BEL_005_MZB_LO_223",4.4335063,51.0543371,"BEVL_VMM_800000","Artificial substrate"
121000174,"Belgium_1_1",41,"541000_DONKMEER","Belgium","DONKMEER","Marie Anne Eurie Forio",3.97763366,51.04163215,"Handnet","Ind/sample","BEL_005_MZB_LE","BEL_005_MZB_LE_4",3.9801488,51.0421656,"BEVL_VMM_541000","Handnet"
121000178,"Belgium_1_1",41,"749200_OUDE KALE","Belgium","OUDE KALE","Marie Anne Eurie Forio",3.61821107,51.08268316,"Handnet","Ind/sample","BEL_005_MZB_LO","BEL_005_MZB_LO_211",3.6207068,51.0832227,"BEVL_VMM_749200","Handnet"
121000189,"Belgium_1_1",41,"253000_GETIJDENETES","Belgium","GETIJDENETES","Marie Anne Eurie Forio",4.73354714,51.10217099,"Handnet","Ind/sample","BEL_005_MZB_LO","BEL_005_MZB_LO_54",4.736107,51.1026983,"BEVL_VMM_253000","Handnet"
121000191,"Belgium_1_1",41,"272000_GETIJDENETES","Belgium","GETIJDENETES","Marie Anne Eurie Forio",4.73616584,51.18789367,"Handnet","Ind/sample","BEL_005_MZB_LO","BEL_005_MZB_LO_64",4.7387285,51.1884249,"BEVL_VMM_272000",NA
121000192,"Belgium_1_1",41,"15000_ISABELLAWATERING","Belgium","ISABELLAWATERING","Marie Anne Eurie Forio",3.68427018,51.26559597,"Handnet","Ind/sample","BEL_005_MZB_LO","BEL_005_MZB_LO_33",3.686775,51.266143,"BEVL_VMM_15000","Handnet"
121000193,"Belgium_1_1",41,"12000_LEOPOLDKANAAL I","Belgium","LEOPOLDKANAAL I","Marie Anne Eurie Forio",3.71175844,51.27716627,"Handnet","Ind/sample","NLD_005_MZB_LO","NLD_005_MZB_LO_2",3.7142652,51.2777136,"BEVL_VMM_12000","Handnet"
121000197,"Belgium_1_1",41,"13000_ZWARTESLUISBEEK","Belgium","ZWARTESLUISBEEK","Marie Anne Eurie Forio",3.75149143,51.26889473,"Handnet","Ind/sample","BEL_005_MZB_LO","BEL_005_MZB_LO_20",3.7540002,51.2694412,"BEVL_VMM_13000",NA
121000202,"Belgium_1_1",41,"917000_IJZER I","Belgium","IJZER I","Marie Anne Eurie Forio",2.57467013,50.90031078,"Handnet","Ind/sample","BEL_005_MZB_LO","BEL_005_MZB_LO_260",2.577101,50.9008536,"BEVL_VMM_917000","Handnet"
121000204,"Belgium_1_1",41,"535500_MARK (Denderbekken)","Belgium","MARK (Denderbekken)","Marie Anne Eurie Forio",4.02305659,50.72564511,"Handnet","Ind/sample","BEL_005_MZB_LO","BEL_005_MZB_LO_177",4.0255651,50.7261637,"BEVL_VMM_535500",NA
121000206,"Belgium_1_1",41,"910900_IJZER II","Belgium","IJZER II","Marie Anne Eurie Forio",2.81471528,50.9907967,"Handnet","Ind/sample","BEL_005_MZB_LO","BEL_005_MZB_LO_256",2.8171624,50.991341,"BEVL_VMM_910900","Handnet"
121000213,"Belgium_1_1",41,"257200_GROTE NETE I","Belgium","GROTE NETE I","Marie Anne Eurie Forio",4.9545482,51.09532636,"Handnet","Ind/sample","BEL_005_MZB_LO","BEL_005_MZB_LO_56",4.9571204,51.0958507,"BEVL_VMM_257200","Handnet"
121000214,"Belgium_1_1",41,"258000_GROTE NETE I","Belgium","GROTE NETE I","Marie Anne Eurie Forio",4.98272793,51.11603628,"Handnet","Ind/sample","BEL_005_MZB_LO","BEL_005_MZB_LO_57",4.9853023,51.1165612,"BEVL_VMM_258000","Handnet"
121000215,"Belgium_1_1",41,"258500_GROTE NETE I","Belgium","GROTE NETE I","Marie Anne Eurie Forio",4.98528682,51.12702497,"Handnet","Ind/sample","BEL_005_MZB_LO","BEL_005_MZB_LO_58",4.9878617,51.1275504,"BEVL_VMM_258500","Handnet"
121000216,"Belgium_1_1",41,"260000_GROTE NETE I","Belgium","GROTE NETE I","Marie Anne Eurie Forio",5.02340656,51.14901192,"Handnet","Ind/sample","BEL_005_MZB_LO","BEL_005_MZB_LO_59",5.0259843,51.1495379,"BEVL_VMM_260000","Handnet"
121000217,"Belgium_1_1",41,"262000_GROTE NETE I","Belgium","GROTE NETE I","Marie Anne Eurie Forio",5.14902561,51.14979256,"Handnet","Ind/sample","BEL_005_MZB_LO","BEL_005_MZB_LO_60",5.1516104,51.150317,"BEVL_VMM_262000","Handnet"
121000218,"Belgium_1_1",41,"273000_KLEINE NETE II","Belgium","KLEINE NETE II","Marie Anne Eurie Forio",4.78071609,51.18436647,"Handnet","Ind/sample","BEL_005_MZB_LO","BEL_005_MZB_LO_65",4.7832811,51.184897,"BEVL_VMM_273000","Handnet"
121000219,"Belgium_1_1",41,"274000_KLEINE NETE II","Belgium","KLEINE NETE II","Marie Anne Eurie Forio",4.82934262,51.18589392,"Handnet","Ind/sample","BEL_005_MZB_LO","BEL_005_MZB_LO_66",4.8319105,51.1864239,"BEVL_VMM_274000","Handnet"
121000221,"Belgium_1_1",41,"276000_KLEINE NETE II","Belgium","KLEINE NETE II","Marie Anne Eurie Forio",4.92433558,51.20484477,"Handnet","Ind/sample","BEL_005_MZB_LO","BEL_005_MZB_LO_68",4.9269094,51.2053744,"BEVL_VMM_276000",NA
121000223,"Belgium_1_1",41,"329000_MOL NEET","Belgium","MOL NEET","Marie Anne Eurie Forio",5.00117232,51.14711105,"Handnet","Ind/sample","BEL_005_MZB_LO","BEL_005_MZB_LO_111",5.0037487,51.1476372,"BEVL_VMM_329000","Handnet"
121000225,"Belgium_1_1",41,"125000_ABEEK","Belgium","ABEEK","Marie Anne Eurie Forio",5.80926571,51.12522289,"Handnet","Ind/sample","BEL_005_MZB_LO","BEL_005_MZB_LO_15",5.811887,51.125738,"BEVL_VMM_125000","Handnet"
121000228,"Belgium_1_1",41,"128000_ABEEK","Belgium","ABEEK","Marie Anne Eurie Forio",5.62843917,51.1787239,"Handnet","Ind/sample","BEL_005_MZB_LO","BEL_005_MZB_LO_18",5.631052,51.1792437,"BEVL_VMM_128000","Handnet"
121000230,"Belgium_1_1",41,"72000_MARK (Maas)","Belgium","MARK (Maas)","Marie Anne Eurie Forio",4.77849143,51.5045142,"Handnet","Ind/sample","BEL_005_MZB_LO","BEL_005_MZB_LO_200",4.7810662,51.5050592,"BEVL_VMM_72000","Handnet"
121000231,"Belgium_1_1",41,"72500_MARK (Maas)","Belgium","MARK (Maas)","Marie Anne Eurie Forio",4.74465239,51.44469141,"Handnet","Ind/sample","BEL_005_MZB_LO","BEL_005_MZB_LO_204",4.7472234,51.4452341,"BEVL_VMM_72500","Handnet"
121000237,"Belgium_1_1",41,"716000_ZWALM","Belgium","ZWALM","Marie Anne Eurie Forio",3.68382151,50.88485379,"Handnet","Ind/sample","BEL_005_MZB_LO","BEL_005_MZB_LO_198",3.6863154,50.8853835,"BEVL_VMM_716000","Handnet"
121000241,"Belgium_1_1",41,"100000_WARMBEEK","Belgium","WARMBEEK","Marie Anne Eurie Forio",5.48452727,51.30252138,"Handnet","Ind/sample","BEL_005_MZB_LO","BEL_005_MZB_LO_2",5.4871359,51.3030486,"BEVL_VMM_100000","Handnet"
121000255,"Belgium_1_1",41,"851700_ZUID-WILLEMSVAART + KANAAL BOCHOLT-HERENTALS (deels) + KANAAL BRIEGDEN-NEERHAREN","Belgium","ZUID-WILLEMSVAART + KANAAL BOCHOLT-HERENTALS (deels) + KANAAL BRIEGDEN-NEERHAREN","Marie Anne Eurie Forio",5.58044239,51.21610968,"Handnet","Ind/sample","BEL_005_MZB_LO","BEL_005_MZB_LO_242",5.5830537,51.2166318,"BEVL_VMM_851700","Handnet"
121000165,"Belgium_1_2",41,"657000_KANAAL BOSSUIT-KORTRIJK","Belgium","KANAAL BOSSUIT-KORTRIJK","Marie Anne Eurie Forio",3.28455185,50.83017625,"Artificial substrate","Ind/sample","BEL_005_MZB_LO","BEL_005_MZB_LO_186",3.2870214,50.830708,"BEVL_VMM_657000",NA
121000168,"Belgium_1_2",41,"849000_KANAAL VAN BEVERLO","Belgium","KANAAL VAN BEVERLO","Marie Anne Eurie Forio",5.2405166,51.13273728,"Artificial substrate","Ind/sample","BEL_005_MZB_LO","BEL_005_MZB_LO_240",5.2431061,51.1332598,"BEVL_VMM_849000","Artificial substrate"
121000183,"Belgium_1_2",41,"511000_DENDER I","Belgium","DENDER I","Marie Anne Eurie Forio",3.86439679,50.76130802,"Artificial substrate","Ind/sample","BEL_005_MZB_LO","BEL_005_MZB_LO_163",3.8668974,50.7618301,"BEVL_VMM_511000","Artificial substrate"
121000190,"Belgium_1_2",41,"270400_GETIJDENETES","Belgium","GETIJDENETES","Marie Anne Eurie Forio",4.57984767,51.1492161,"Artificial substrate","Ind/sample","BEL_005_MZB_LO","BEL_005_MZB_LO_63",4.5824002,51.1497474,"BEVL_VMM_270400","Artificial substrate"
121000196,"Belgium_1_2",41,"850000_NETEKANAAL","Belgium","NETEKANAAL","Marie Anne Eurie Forio",4.56040323,51.11598384,"Artificial substrate","Ind/sample","BEL_005_MZB_LO","BEL_005_MZB_LO_241",4.5629537,51.1165139,"BEVL_VMM_850000",NA
121000198,"Belgium_1_2",41,"179000_BOVEN-SCHELDE I","Belgium","BOVEN-SCHELDE I","Marie Anne Eurie Forio",3.3498336,50.70030492,"Artificial substrate","Ind/sample","BEL_005_MZB_LO","BEL_005_MZB_LO_42",3.3523033,50.70083,"BEVL_VMM_179000","Artificial substrate"
121000248,"Belgium_1_2",41,"840000_KANAAL DESSEL-KWAADMECHELEN + KANAAL DESSEL-SCHOTEN + KANAAL BOCHOLT-HERENTALS (deels)","Belgium","KANAAL DESSEL-KWAADMECHELEN + KANAAL DESSEL-SCHOTEN + KANAAL BOCHOLT-HERENTALS (deels)","Marie Anne Eurie Forio",4.499726,51.24187467,"Artificial substrate","Ind/sample","BEL_005_MZB_LO","BEL_005_MZB_LO_233",4.5022768,51.2424111,"BEVL_VMM_840000","Artificial substrate"
121000251,"Belgium_1_2",41,"842800_KANAAL DESSEL-KWAADMECHELEN + KANAAL DESSEL-SCHOTEN + KANAAL BOCHOLT-HERENTALS (deels)","Belgium","KANAAL DESSEL-KWAADMECHELEN + KANAAL DESSEL-SCHOTEN + KANAAL BOCHOLT-HERENTALS (deels)","Marie Anne Eurie Forio",5.15287265,51.19155526,"Artificial substrate","Ind/sample","BEL_005_MZB_LO","BEL_005_MZB_LO_236",5.155459,51.1920816,"BEVL_VMM_842800",NA
121000252,"Belgium_1_2",41,"843000_KANAAL DESSEL-KWAADMECHELEN + KANAAL DESSEL-SCHOTEN + KANAAL BOCHOLT-HERENTALS (deels)","Belgium","KANAAL DESSEL-KWAADMECHELEN + KANAAL DESSEL-SCHOTEN + KANAAL BOCHOLT-HERENTALS (deels)","Marie Anne Eurie Forio",5.16162312,51.23163948,"Artificial substrate","Ind/sample","BEL_005_MZB_LO","BEL_005_MZB_LO_237",5.1642112,51.2321675,"BEVL_VMM_843000",NA
121000253,"Belgium_1_2",41,"845000_KANAAL DESSEL-KWAADMECHELEN + KANAAL DESSEL-SCHOTEN + KANAAL BOCHOLT-HERENTALS (deels)","Belgium","KANAAL DESSEL-KWAADMECHELEN + KANAAL DESSEL-SCHOTEN + KANAAL BOCHOLT-HERENTALS (deels)","Marie Anne Eurie Forio",4.8476686,51.17109791,"Artificial substrate","Ind/sample","BEL_005_MZB_LO","BEL_005_MZB_LO_238",4.850237,51.171627,"BEVL_VMM_845000",NA
121000254,"Belgium_1_2",41,"848200_KANAAL DESSEL-KWAADMECHELEN + KANAAL DESSEL-SCHOTEN + KANAAL BOCHOLT-HERENTALS (deels)","Belgium","KANAAL DESSEL-KWAADMECHELEN + KANAAL DESSEL-SCHOTEN + KANAAL BOCHOLT-HERENTALS (deels)","Marie Anne Eurie Forio",5.14645122,51.2310124,"Artificial substrate","Ind/sample","BEL_005_MZB_LO","BEL_005_MZB_LO_239",5.1490384,51.2315406,"BEVL_VMM_848200",NA
106000001,"Bulgaria_1",13,"at Bregovo Town","Bulgaria","Timok River","Vesela Evtimova",22.62678,44.15406,"adapted multi-habitat method (Cheshmedjiev et al., 2011)","Ind/m^3","BGR_006_MZB_LO","BGR_006_MZB_LO_4",22.62678,44.15406,"1",NA
106000002,"Bulgaria_1",13,"at Opanets Village, before flowing into Vit River","Bulgaria","Tuchenitsa River","Vesela Evtimova",24.56,43.45111,"adapted multi-habitat method (Cheshmedjiev et al., 2011)","Ind/m^3","BGR_006_MZB_LO","BGR_006_MZB_LO_5",24.56,43.45111,"2",NA
106000003,"Bulgaria_1",13,"after Gulyantsi Town","Bulgaria","Vit River","Vesela Evtimova",24.69756,43.63347,"adapted multi-habitat method (Cheshmedjiev et al., 2011)","Ind/m^3","BGR_006_MZB_LO","BGR_006_MZB_LO_6",24.69756,43.63347,"3",NA
106000004,"Bulgaria_1",13,"after Teteven  Town","Bulgaria","Vit River","Vesela Evtimova",24.23892,42.92706,"adapted multi-habitat method (Cheshmedjiev et al., 2011)","Ind/m^3","BGR_006_MZB_LO","BGR_006_MZB_LO_7",24.23892,42.92706,"4",NA
106000005,"Bulgaria_1",13,"before Ribaritsa Village","Bulgaria","Beli Vit River","Vesela Evtimova",24.37385,42.84134,"adapted multi-habitat method (Cheshmedjiev et al., 2011)","Ind/m^3","BGR_006_MZB_LO","BGR_006_MZB_LO_8",24.37385,42.84134,"5",NA
106000006,"Bulgaria_2",14,"upstream Shiroka laka village","Bulgaria","Shirokolashka","Yanka Vidinova",24.587294,41.677316,"adapted multi-habitat method (Cheshmedjiev et al., 2011)","Ind/m^3","BGR_007_MZB_LO","BGR_007_MZB_LO_9",24.587294,41.677316,"1",NA
106000007,"Bulgaria_3",15,"Glazna","Bulgaria","Mesta","Emilia Varadinova",23.42656,41.76761,"adapted multi-habitat method (Cheshmedjiev et al., 2011)","Ind/m^3","BGR_008_MZB_LO","BGR_008_MZB_LO_1",23.42656,41.76761,"1",NA
106000008,"Bulgaria_3",15,"General Kovachev","Bulgaria","Mesta","Emilia Varadinova",23.57172,41.88705,"adapted multi-habitat method (Cheshmedjiev et al., 2011)","Ind/m^3","BGR_008_MZB_LO","BGR_008_MZB_LO_2",23.57172,41.88705,"2",NA
106000009,"Bulgaria_3",15,"Momina Kula","Bulgaria","Mesta","Emilia Varadinova",23.70255,41.70987,"adapted multi-habitat method (Cheshmedjiev et al., 2011)","Ind/m^3","BGR_008_MZB_LO","BGR_008_MZB_LO_3",23.70255,41.70987,"3",NA
102000002,"Cyprus_1",5,"@  Lazaridhes","Cyprus","Xeros","Iakovos Tziortzis",32.69966865,34.92728089,"AQEM","Ind/m^2","CYP_009_MZB_LO","CYP_009_MZB_LO_2",32.699669,34.927281,"r1-3-5-05",NA
102000003,"Cyprus_1",5,"@  Rotsos  twn  Laoudiwn","Cyprus","Xeros","Iakovos Tziortzis",32.66360381,34.85452298,"AQEM","Ind/m^2","CYP_009_MZB_LO","CYP_009_MZB_LO_3",32.663604,34.854523,"r1-3-6-53",NA
112000001,"Czech Republic_1",31,"Znojmo","Czech Republic","Granicky potok","Petr Paril",16.0252603,48.8666458,"PERLA","Ind/sample","CZE_010_MZB_LO","CZE_010_MZB_LO_1",16.0252603,48.666458,"1",NA
107000001,"Denmark_1",16,"ELLING ?, ELLING KIRKE","Denmark","ELLING ?","Jes Rasmussen",10.48534465,57.47237389,"Kicknet, 0.5mm mesh","composite of 12 samples totaling Ind/0.6 m^2","DNK_011_MZB_LO","DNK_011_MZB_LO_1",10.4853446513189,57.4723738911531,"1",NA
107000002,"Denmark_1",16,"STAB?K, VEJ V. H?JBJERGHUS","Denmark","STAB?K","Jes Rasmussen",10.34733937,57.49413745,"Kicknet, 0.5mm mesh","composite of 12 samples totaling Ind/0.6 m^2","DNK_011_MZB_LO","DNK_011_MZB_LO_2",10.3473393660567,57.494137454417,"2",NA
107000003,"Denmark_1",16,"KNASBORG ?, V. HOVEDVEJEN","Denmark","KNASBORG ?","Jes Rasmussen",10.41286148,57.58261253,"Kicknet, 0.5mm mesh","composite of 12 samples totaling Ind/0.6 m^2","DNK_011_MZB_LO","DNK_011_MZB_LO_3",10.4128614817055,57.5826125299066,"3",NA
107000004,"Denmark_1",16,"SK?RUM ?, 150M OS BRO, NS STUDSBJERG DMB","Denmark","SK?RUM ?","Jes Rasmussen",10.35968957,57.45471848,"Kicknet, 0.5mm mesh","composite of 12 samples totaling Ind/0.6 m^2","DNK_011_MZB_LO","DNK_011_MZB_LO_4",10.3596895669263,57.454718480824,"4",NA
107000005,"Denmark_1",16,"UGGERBY ?, NS RANSB?K","Denmark","UGGERBY ?","Jes Rasmussen",10.10881745,57.56910827,"Kicknet, 0.5mm mesh","composite of 12 samples totaling Ind/0.6 m^2","DNK_011_MZB_LO","DNK_011_MZB_LO_5",10.108817454089,57.569108269516,"5",NA
107000006,"Denmark_1",16,"GR?SDAL B?K, RUGHOLMVEJ","Denmark","GR?SDAL B?K","Jes Rasmussen",10.13485415,57.39826174,"Kicknet, 0.5mm mesh","composite of 12 samples totaling Ind/0.6 m^2","DNK_011_MZB_LO","DNK_011_MZB_LO_6",10.1348541454683,57.3982617351096,"6",NA
107000007,"Denmark_1",16,"VARBRO ?, PRIVAT BRO","Denmark","VARBRO ?","Jes Rasmussen",9.89928212,57.51751246,"Kicknet, 0.5mm mesh","composite of 12 samples totaling Ind/0.6 m^2","DNK_011_MZB_LO","DNK_011_MZB_LO_7",9.89928212025884,57.517512456787,"7",NA
107000008,"Denmark_1",16,"LIVER ?, R?DE BRO","Denmark","LIVER ?","Jes Rasmussen",9.898407784,57.51590171,"Kicknet, 0.5mm mesh","composite of 12 samples totaling Ind/0.6 m^2","DNK_011_MZB_LO","DNK_011_MZB_LO_8",9.89840778427716,57.5159017051635,"8",NA
107000009,"Denmark_1",16,"H?STRUP M?LLEB?K, LUNDERG?RD BRO","Denmark","H?STRUP M?LLEB?K","Jes Rasmussen",9.964134308,57.40769728,"Kicknet, 0.5mm mesh","composite of 12 samples totaling Ind/0.6 m^2","DNK_011_MZB_LO","DNK_011_MZB_LO_9",9.96413430817734,57.4076972786677,"9",NA
107000010,"Denmark_1",16,"VREJLEV B?K, K?RHOLM, SAKSAGER BRO","Denmark","VREJLEV B?K","Jes Rasmussen",10.0110318,57.33547933,"Kicknet, 0.5mm mesh","composite of 12 samples totaling Ind/0.6 m^2","DNK_011_MZB_LO","DNK_011_MZB_LO_10",10.0110317954006,57.3354793300492,"10",NA
107000011,"Denmark_1",16,"VOER ?, F?BROEN","Denmark","VOER ?","Jes Rasmussen",10.43786881,57.20834909,"Kicknet, 0.5mm mesh","composite of 12 samples totaling Ind/0.6 m^2","DNK_011_MZB_LO","DNK_011_MZB_LO_11",10.4378688103456,57.2083490894553,"11",NA
107000012,"Denmark_1",16,"RY ?, MANNA","Denmark","RY ?","Jes Rasmussen",9.843097099,57.2693585,"Kicknet, 0.5mm mesh","composite of 12 samples totaling Ind/0.6 m^2","DNK_011_MZB_LO","DNK_011_MZB_LO_12",9.84309709935137,57.2693585010665,"12",NA
107000013,"Denmark_1",16,"LINDHOLM ?, SKARVAD","Denmark","LINDHOLM ?","Jes Rasmussen",10.02248293,57.19025509,"Kicknet, 0.5mm mesh","composite of 12 samples totaling Ind/0.6 m^2","DNK_011_MZB_LO","DNK_011_MZB_LO_13",10.0224829319643,57.1902550935887,"13",NA
107000014,"Denmark_1",16,"STAEB?K, STAE BRO","Denmark","STAEB?K","Jes Rasmussen",10.07576054,57.08815663,"Kicknet, 0.5mm mesh","composite of 12 samples totaling Ind/0.6 m^2","DNK_011_MZB_LO","DNK_011_MZB_LO_14",10.07576054093,57.0881566269366,"14",NA
107000015,"Denmark_1",16,"GER?, MELHOLT KIRKE","Denmark","GER?","Jes Rasmussen",10.35159712,57.10371492,"Kicknet, 0.5mm mesh","composite of 12 samples totaling Ind/0.6 m^2","DNK_011_MZB_LO","DNK_011_MZB_LO_15",10.3515971157772,57.1037149232534,"15",NA
107000016,"Denmark_1",16,"LANGESLUND KANAL, V. TVEK?RG?RD","Denmark","LANGESLUND KANAL","Jes Rasmussen",9.592731929,57.14167897,"Kicknet, 0.5mm mesh","composite of 12 samples totaling Ind/0.6 m^2","DNK_011_MZB_LO","DNK_011_MZB_LO_16",9.59273192931529,57.1416789666375,"16",NA
107000017,"Denmark_1",16,"STOR?, K?STRUP","Denmark","STOR?","Jes Rasmussen",8.73477554,57.03192562,"Kicknet, 0.5mm mesh","composite of 12 samples totaling Ind/0.6 m^2","DNK_011_MZB_LO","DNK_011_MZB_LO_17",8.73477554049204,57.0319256151782,"17",NA
107000018,"Denmark_1",16,"N?RK?R ?, FJORDLUND","Denmark","N?RK?R ?","Jes Rasmussen",8.618704798,56.8692108,"Kicknet, 0.5mm mesh","composite of 12 samples totaling Ind/0.6 m^2","DNK_011_MZB_LO","DNK_011_MZB_LO_18",8.61870479754656,56.8692107986058,"18",NA
107000019,"Denmark_1",16,"HOLMG?RD M?LLE?, HOLMG?RDE","Denmark","HOLMG?RD M?LLE?","Jes Rasmussen",8.3934476,56.69438985,"Kicknet, 0.5mm mesh","composite of 12 samples totaling Ind/0.6 m^2","DNK_011_MZB_LO","DNK_011_MZB_LO_19",8.39344760049451,56.6943898455936,"19",NA
107000020,"Denmark_1",16,"BJERGE ?, OS. DR?STRUP","Denmark","BJERGE ?","Jes Rasmussen",9.261810513,57.04548886,"Kicknet, 0.5mm mesh","composite of 12 samples totaling Ind/0.6 m^2","DNK_011_MZB_LO","DNK_011_MZB_LO_20",9.26181051330891,57.0454888554427,"20",NA
107000021,"Denmark_1",16,"VESTER KANAL, NS. THISTEDVEJ","Denmark","VESTER KANAL","Jes Rasmussen",9.502150537,57.09579143,"Kicknet, 0.5mm mesh","composite of 12 samples totaling Ind/0.6 m^2","DNK_011_MZB_LO","DNK_011_MZB_LO_21",9.50215053670568,57.0957914327575,"21",NA
107000022,"Denmark_1",16,"KLASTRUP S?B?K, 300 M OPSTR. SIDETILL?B","Denmark","KLASTRUP S?B?K","Jes Rasmussen",8.839215135,57.04325169,"Kicknet, 0.5mm mesh","composite of 12 samples totaling Ind/0.6 m^2","DNK_011_MZB_LO","DNK_011_MZB_LO_22",8.83921513455525,57.0432516912776,"22",NA
107000023,"Denmark_1",16,"HALK?R ?, V. ?G?RD","Denmark","HALK?R ?","Jes Rasmussen",9.550175629,56.82557539,"Kicknet, 0.5mm mesh","composite of 12 samples totaling Ind/0.6 m^2","DNK_011_MZB_LO","DNK_011_MZB_LO_23",9.55017562909568,56.8255753927917,"23",NA
107000024,"Denmark_1",16,"ROMDRUP ?, V. LODSHOLM BRO","Denmark","ROMDRUP ?","Jes Rasmussen",10.02637444,57.01597104,"Kicknet, 0.5mm mesh","composite of 12 samples totaling Ind/0.6 m^2","DNK_011_MZB_LO","DNK_011_MZB_LO_24",10.0263744363847,57.0159710350594,"24",NA
107000025,"Denmark_1",16,"DYBVAD ?, NS BREDKILDE B?K","Denmark","DYBVAD ?","Jes Rasmussen",9.408530509,56.96435194,"Kicknet, 0.5mm mesh","composite of 12 samples totaling Ind/0.6 m^2","DNK_011_MZB_LO","DNK_011_MZB_LO_25",9.40853050881357,56.9643519365547,"25",NA
107000026,"Denmark_1",16,"BINDERUP ?, BINDERUP M?LLE, NS","Denmark","BINDERUP ?","Jes Rasmussen",9.675428949,56.99953508,"Kicknet, 0.5mm mesh","composite of 12 samples totaling Ind/0.6 m^2","DNK_011_MZB_LO","DNK_011_MZB_LO_26",9.67542894923922,56.9995350791325,"26",NA
107000027,"Denmark_1",16,"BRUS?, R?NH?J","Denmark","BRUS?","Jes Rasmussen",9.43717065,56.91444062,"Kicknet, 0.5mm mesh","composite of 12 samples totaling Ind/0.6 m^2","DNK_011_MZB_LO","DNK_011_MZB_LO_27",9.43717064960712,56.9144406244881,"27",NA
107000028,"Denmark_1",16,"GULDB?K, V. GULDB?K-?STER HORNUMVEJ","Denmark","GULDB?K","Jes Rasmussen",9.807815193,56.94178388,"Kicknet, 0.5mm mesh","composite of 12 samples totaling Ind/0.6 m^2","DNK_011_MZB_LO","DNK_011_MZB_LO_28",9.80781519323231,56.9417838781191,"28",NA
107000029,"Denmark_1",16,"HASSERIS ?, GODTH?B-VOLSTRUP VEJEN","Denmark","HASSERIS ?","Jes Rasmussen",9.764929156,56.95767651,"Kicknet, 0.5mm mesh","composite of 12 samples totaling Ind/0.6 m^2","DNK_011_MZB_LO","DNK_011_MZB_LO_29",9.76492915553928,56.957676509879,"29",NA
107000030,"Denmark_1",16,"HARRING ?, HARRING HEDEG?RD","Denmark","HARRING ?","Jes Rasmussen",8.519885396,56.85902385,"Kicknet, 0.5mm mesh","composite of 12 samples totaling Ind/0.6 m^2","DNK_011_MZB_LO","DNK_011_MZB_LO_30",8.51988539594181,56.8590238502506,"30",NA
107000031,"Denmark_1",16,"MOVTRUP ?, BLISTRUP BRO","Denmark","MOVTRUP ?","Jes Rasmussen",8.68562944,56.70530711,"Kicknet, 0.5mm mesh","composite of 12 samples totaling Ind/0.6 m^2","DNK_011_MZB_LO","DNK_011_MZB_LO_31",8.68562944039077,56.7053071051833,"31",NA
107000032,"Denmark_1",16,"LERKENFELD ?, LERKENFELD M?LLEG?RD","Denmark","LERKENFELD ?","Jes Rasmussen",9.399919455,56.73437666,"Kicknet, 0.5mm mesh","composite of 12 samples totaling Ind/0.6 m^2","DNK_011_MZB_LO","DNK_011_MZB_LO_32",9.3999194552211,56.7343766559012,"32",NA
107000033,"Denmark_1",16,"ODDERB?K, FARS? BROEN","Denmark","ODDERB?K","Jes Rasmussen",9.519340382,56.74513944,"Kicknet, 0.5mm mesh","composite of 12 samples totaling Ind/0.6 m^2","DNK_011_MZB_LO","DNK_011_MZB_LO_33",9.51934038184624,56.7451394409543,"33",NA
107000034,"Denmark_1",16,"TREND ?, FREDBJERG BRO","Denmark","TREND ?","Jes Rasmussen",9.288033916,56.81959178,"Kicknet, 0.5mm mesh","composite of 12 samples totaling Ind/0.6 m^2","DNK_011_MZB_LO","DNK_011_MZB_LO_34",9.28803391598419,56.8195917818908,"34",NA
107000035,"Denmark_1",16,"N?RRE RIND B?K, VEJBRO NR. RIND-L?STRUP","Denmark","N?RRE RIND B?K","Jes Rasmussen",9.360983798,56.57552255,"Kicknet, 0.5mm mesh","composite of 12 samples totaling Ind/0.6 m^2","DNK_011_MZB_LO","DNK_011_MZB_LO_35",9.36098379814425,56.57552255202,"35",NA
107000036,"Denmark_1",16,"BONDERUP B?K, V. KONGENS TISTED","Denmark","BONDERUP B?K","Jes Rasmussen",9.587791856,56.74889633,"Kicknet, 0.5mm mesh","composite of 12 samples totaling Ind/0.6 m^2","DNK_011_MZB_LO","DNK_011_MZB_LO_36",9.58779185630027,56.748896333638,"36",NA
107000037,"Denmark_1",16,"FALDB?K, V. FALDVEJEN, VESTER FALDG?RD","Denmark","FALDB?K","Jes Rasmussen",9.30932007,56.87590497,"Kicknet, 0.5mm mesh","composite of 12 samples totaling Ind/0.6 m^2","DNK_011_MZB_LO","DNK_011_MZB_LO_37",9.30932007043835,56.8759049718196,"37",NA
107000038,"Denmark_1",16,"LINDENBORG ?, VED M?LLEBRO","Denmark","LINDENBORG ?","Jes Rasmussen",10.10025644,56.94285014,"Kicknet, 0.5mm mesh","composite of 12 samples totaling Ind/0.6 m^2","DNK_011_MZB_LO","DNK_011_MZB_LO_38",10.1002564428725,56.9428501370529,"38",NA
107000039,"Denmark_1",16,"HASLEVG?RDS ?, TR?P?LEBRO","Denmark","HASLEVG?RDS ?","Jes Rasmussen",10.22889341,56.79568089,"Kicknet, 0.5mm mesh","composite of 12 samples totaling Ind/0.6 m^2","DNK_011_MZB_LO","DNK_011_MZB_LO_39",10.2288934100787,56.7956808882811,"39",NA
107000040,"Denmark_1",16,"VALSG?RD B?K, VED TRENBAKKE","Denmark","VALSG?RD B?K","Jes Rasmussen",9.853143021,56.65318953,"Kicknet, 0.5mm mesh","composite of 12 samples totaling Ind/0.6 m^2","DNK_011_MZB_LO","DNK_011_MZB_LO_40",9.8531430212508,56.6531895270833,"40",NA
107000041,"Denmark_1",16,"VILLESTRUP ?, M?LDRUP","Denmark","VILLESTRUP ?","Jes Rasmussen",9.940773192,56.77198768,"Kicknet, 0.5mm mesh","composite of 12 samples totaling Ind/0.6 m^2","DNK_011_MZB_LO","DNK_011_MZB_LO_41",9.9407731923511,56.7719876829203,"41",NA
107000042,"Denmark_1",16,"VIVE M?LLEB?K, VIVEBROG?RD","Denmark","VIVE M?LLEB?K","Jes Rasmussen",10.04103232,56.69651233,"Kicknet, 0.5mm mesh","composite of 12 samples totaling Ind/0.6 m^2","DNK_011_MZB_LO","DNK_011_MZB_LO_42",10.0410323154239,56.6965123327201,"42",NA
107000043,"Denmark_1",16,"KASTBJERG ?, KIRKEBRO, I FALSLEV BY","Denmark","KASTBJERG ?","Jes Rasmussen",10.09539427,56.67288394,"Kicknet, 0.5mm mesh","composite of 12 samples totaling Ind/0.6 m^2","DNK_011_MZB_LO","DNK_011_MZB_LO_43",10.0953942747026,56.6728839395378,"43",NA
107000044,"Denmark_1",16,"?STRE VASEGR?FT, ENGHOLM","Denmark","?STRE VASEGR?FT","Jes Rasmussen",10.16825037,56.99092831,"Kicknet, 0.5mm mesh","composite of 12 samples totaling Ind/0.6 m^2","DNK_011_MZB_LO","DNK_011_MZB_LO_44",10.1682503727421,56.9909283114034,"44",NA
107000045,"Denmark_1",16,"HASLEVG?RDS ?, KONGSTEDLUND","Denmark","HASLEVG?RDS ?","Jes Rasmussen",10.14885107,56.87082584,"Kicknet, 0.5mm mesh","composite of 12 samples totaling Ind/0.6 m^2","DNK_011_MZB_LO","DNK_011_MZB_LO_45",10.1488510693562,56.8708258449014,"45",NA
107000046,"Denmark_1",16,"FALD ?, KOKHOLM","Denmark","FALD ?","Jes Rasmussen",8.488480276,56.5399379,"Kicknet, 0.5mm mesh","composite of 12 samples totaling Ind/0.6 m^2","DNK_011_MZB_LO","DNK_011_MZB_LO_46",8.48848027552074,56.5399378959154,"46",NA
107000047,"Denmark_1",16,"VIUM M?LLE?, VIUM M?LLE","Denmark","VIUM M?LLE?","Jes Rasmussen",8.949859479,56.66802387,"Kicknet, 0.5mm mesh","composite of 12 samples totaling Ind/0.6 m^2","DNK_011_MZB_LO","DNK_011_MZB_LO_47",8.94985947858782,56.6680238719597,"47",NA
107000048,"Denmark_1",16,"HAGENSM?LLE B?K, INTRUPG?RD","Denmark","HAGENSM?LLE B?K","Jes Rasmussen",9.028971269,56.61663309,"Kicknet, 0.5mm mesh","composite of 12 samples totaling Ind/0.6 m^2","DNK_011_MZB_LO","DNK_011_MZB_LO_48",9.02897126900175,56.6166330897348,"48",NA
107000049,"Denmark_1",16,"B?K V FOR SVENSTRUP, V. ELK?R","Denmark","B?K V FOR SVENSTRUP","Jes Rasmussen",8.825484956,56.46878743,"Kicknet, 0.5mm mesh","composite of 12 samples totaling Ind/0.6 m^2","DNK_011_MZB_LO","DNK_011_MZB_LO_49",8.82548495580964,56.4687874256386,"49",NA
107000050,"Denmark_1",16,"R?DDING ?, NEDSTR?MS NEDER GINDERUP B?K","Denmark","R?DDING ?","Jes Rasmussen",8.829861309,56.65865526,"Kicknet, 0.5mm mesh","composite of 12 samples totaling Ind/0.6 m^2","DNK_011_MZB_LO","DNK_011_MZB_LO_50",8.82986130885214,56.6586552590696,"50",NA
107000051,"Denmark_1",16,"KIRKEB?KKEN, VED BORBJERG","Denmark","KIRKEB?KKEN","Jes Rasmussen",8.759039146,56.40409685,"Kicknet, 0.5mm mesh","composite of 12 samples totaling Ind/0.6 m^2","DNK_011_MZB_LO","DNK_011_MZB_LO_51",8.75903914632899,56.4040968478628,"51",NA
107000052,"Denmark_1",16,"SMALLE ?, ?ST FOR EGEBJERG","Denmark","SMALLE ?","Jes Rasmussen",8.835092692,56.53265146,"Kicknet, 0.5mm mesh","composite of 12 samples totaling Ind/0.6 m^2","DNK_011_MZB_LO","DNK_011_MZB_LO_52",8.83509269171376,56.5326514601442,"52",NA
107000053,"Denmark_1",16,"SIMESTED ?, SKIVE-HOBRO LANDEVEJ","Denmark","SIMESTED ?","Jes Rasmussen",9.430059944,56.61114975,"Kicknet, 0.5mm mesh","composite of 12 samples totaling Ind/0.6 m^2","DNK_011_MZB_LO","DNK_011_MZB_LO_53",9.4300599441136,56.6111497466956,"53",NA
107000054,"Denmark_1",16,"TORSDAL B?K, NS N?RAGER RENSEANL?G","Denmark","TORSDAL B?K","Jes Rasmussen",9.628037295,56.69910788,"Kicknet, 0.5mm mesh","composite of 12 samples totaling Ind/0.6 m^2","DNK_011_MZB_LO","DNK_011_MZB_LO_54",9.62803729519282,56.6991078822527,"54",NA
107000055,"Denmark_1",16,"SKALS ?, L?VEL BRO","Denmark","SKALS ?","Jes Rasmussen",9.492778465,56.57312959,"Kicknet, 0.5mm mesh","composite of 12 samples totaling Ind/0.6 m^2","DNK_011_MZB_LO","DNK_011_MZB_LO_55",9.49277846459838,56.5731295936243,"55",NA
107000056,"Denmark_1",16,"TRUDSKOV B?K, L?GST?RVEJ. 300M F?R 10KM-STEN","Denmark","TRUDSKOV B?K","Jes Rasmussen",9.40412495,56.53350541,"Kicknet, 0.5mm mesh","composite of 12 samples totaling Ind/0.6 m^2","DNK_011_MZB_LO","DNK_011_MZB_LO_56",9.40412494960719,56.5335054101809,"56",NA
107000057,"Denmark_1",16,"VORNING ?, VORNING BRO","Denmark","VORNING ?","Jes Rasmussen",9.730739329,56.55151051,"Kicknet, 0.5mm mesh","composite of 12 samples totaling Ind/0.6 m^2","DNK_011_MZB_LO","DNK_011_MZB_LO_57",9.73073932936756,56.5515105108825,"57",NA
107000058,"Denmark_1",16,"JORDBRO ?, JORDBRO M?LLE","Denmark","JORDBRO ?","Jes Rasmussen",9.20545465,56.53251019,"Kicknet, 0.5mm mesh","composite of 12 samples totaling Ind/0.6 m^2","DNK_011_MZB_LO","DNK_011_MZB_LO_58",9.20545465046976,56.5325101919042,"58",NA
107000059,"Denmark_1",16,"L?NUM B?K, B?KG?RD","Denmark","L?NUM B?K","Jes Rasmussen",9.139703345,56.46095226,"Kicknet, 0.5mm mesh","composite of 12 samples totaling Ind/0.6 m^2","DNK_011_MZB_LO","DNK_011_MZB_LO_59",9.13970334515844,56.4609522608735,"59",NA
107000060,"Denmark_1",16,"FISKB?K M?LLEB?K, VEJBRO FISKB?K","Denmark","FISKB?K M?LLEB?K","Jes Rasmussen",9.309366983,56.51329334,"Kicknet, 0.5mm mesh","composite of 12 samples totaling Ind/0.6 m^2","DNK_011_MZB_LO","DNK_011_MZB_LO_60",9.30936698329108,56.5132933373455,"60",NA
107000061,"Denmark_1",16,"?RESVAD ?, ?RESVAD BRO","Denmark","?RESVAD ?","Jes Rasmussen",9.239402492,56.30549546,"Kicknet, 0.5mm mesh","composite of 12 samples totaling Ind/0.6 m^2","DNK_011_MZB_LO","DNK_011_MZB_LO_61",9.2394024921134,56.3054954631713,"61",NA
107000062,"Denmark_1",16,"FLYNDERS?M?LLE ?, 100M NS AFL. FRA NIKKELBORG S?","Denmark","FLYNDERS?M?LLE ?","Jes Rasmussen",8.967087386,56.52077161,"Kicknet, 0.5mm mesh","composite of 12 samples totaling Ind/0.6 m^2","DNK_011_MZB_LO","DNK_011_MZB_LO_62",8.96708738623696,56.5207716087015,"62",NA
107000063,"Denmark_1",16,"R?JB?K, V. ?GAARD","Denmark","R?JB?K","Jes Rasmussen",8.997552776,56.41208433,"Kicknet, 0.5mm mesh","composite of 12 samples totaling Ind/0.6 m^2","DNK_011_MZB_LO","DNK_011_MZB_LO_63",8.99755277591733,56.4120843322001,"63",NA
107000064,"Denmark_1",16,"GINDESKOV B?K, NS. GINDERSKOV DAMBRUG","Denmark","GINDESKOV B?K","Jes Rasmussen",9.00239424,56.3425631,"Kicknet, 0.5mm mesh","composite of 12 samples totaling Ind/0.6 m^2","DNK_011_MZB_LO","DNK_011_MZB_LO_64",9.00239423998305,56.3425631029084,"64",NA
107000065,"Denmark_1",16,"KNUD ?, SOPHIENDAL","Denmark","KNUD ?","Jes Rasmussen",9.876797766,56.11193408,"Kicknet, 0.5mm mesh","composite of 12 samples totaling Ind/0.6 m^2","DNK_011_MZB_LO","DNK_011_MZB_LO_65",9.87679776646031,56.1119340772689,"65",NA
107000066,"Denmark_1",16,"SALTEN ?, SALTENBRO","Denmark","SALTEN ?","Jes Rasmussen",9.580151302,56.06263084,"Kicknet, 0.5mm mesh","composite of 12 samples totaling Ind/0.6 m^2","DNK_011_MZB_LO","DNK_011_MZB_LO_66",9.58015130245649,56.0626308352139,"66",NA
107000067,"Denmark_1",16,"ELLERUP B?K, B?K, VED VEJBRO","Denmark","ELLERUP B?K","Jes Rasmussen",9.762476013,56.22726038,"Kicknet, 0.5mm mesh","composite of 12 samples totaling Ind/0.6 m^2","DNK_011_MZB_LO","DNK_011_MZB_LO_67",9.76247601284695,56.2272603767582,"67",NA
107000068,"Denmark_1",16,"MATTRUP ?, LILLEBRO","Denmark","MATTRUP ?","Jes Rasmussen",9.611980598,55.91027758,"Kicknet, 0.5mm mesh","composite of 12 samples totaling Ind/0.6 m^2","DNK_011_MZB_LO","DNK_011_MZB_LO_68",9.6119805979999,55.9102775756901,"68",NA
107000069,"Denmark_1",16,"ALLING ?, VED GL. ?LSTVAD BRO","Denmark","ALLING ?","Jes Rasmussen",10.10380857,56.39203405,"Kicknet, 0.5mm mesh","composite of 12 samples totaling Ind/0.6 m^2","DNK_011_MZB_LO","DNK_011_MZB_LO_69",10.1038085710777,56.3920340529091,"69",NA
107000070,"Denmark_1",16,"OKSENB?K, ?. FOR K?RG?RD","Denmark","OKSENB?K","Jes Rasmussen",10.27904039,56.42538393,"Kicknet, 0.5mm mesh","composite of 12 samples totaling Ind/0.6 m^2","DNK_011_MZB_LO","DNK_011_MZB_LO_70",10.2790403914555,56.4253839251833,"70",NA
107000071,"Denmark_1",16,"GJERN ?, OPST.GJERN","Denmark","GJERN ?","Jes Rasmussen",9.736901852,56.227613,"Kicknet, 0.5mm mesh","composite of 12 samples totaling Ind/0.6 m^2","DNK_011_MZB_LO","DNK_011_MZB_LO_71",9.736901852036,56.2276130030655,"71",NA
107000072,"Denmark_1",16,"LIN?, B?SM?LLE BRO","Denmark","LIN?","Jes Rasmussen",9.657119989,56.18764852,"Kicknet, 0.5mm mesh","composite of 12 samples totaling Ind/0.6 m^2","DNK_011_MZB_LO","DNK_011_MZB_LO_72",9.65711998856393,56.1876485184509,"72",NA
107000073,"Denmark_1",16,"N?RRE ?, FLADBRO KRO","Denmark","N?RRE ?","Jes Rasmussen",9.962168766,56.44624221,"Kicknet, 0.5mm mesh","composite of 12 samples totaling Ind/0.6 m^2","DNK_011_MZB_LO","DNK_011_MZB_LO_73",9.96216876551629,56.4462422073791,"73",NA
107000074,"Denmark_1",16,"ILLERUP ?, FORLEV BRO","Denmark","ILLERUP ?","Jes Rasmussen",9.909669239,56.05403802,"Kicknet, 0.5mm mesh","composite of 12 samples totaling Ind/0.6 m^2","DNK_011_MZB_LO","DNK_011_MZB_LO_74",9.90966923931819,56.0540380168382,"74",NA
107000075,"Denmark_1",16,"NIMDRUP B?K, VEST FOR KARLS?","Denmark","NIMDRUP B?K","Jes Rasmussen",9.540136665,56.01259503,"Kicknet, 0.5mm mesh","composite of 12 samples totaling Ind/0.6 m^2","DNK_011_MZB_LO","DNK_011_MZB_LO_75",9.54013666458576,56.0125950331424,"75",NA
107000076,"Denmark_1",16,"RINGKLOSTER ?, KLOSTERBRO","Denmark","RINGKLOSTER ?","Jes Rasmussen",9.963920885,56.01325493,"Kicknet, 0.5mm mesh","composite of 12 samples totaling Ind/0.6 m^2","DNK_011_MZB_LO","DNK_011_MZB_LO_76",9.96392088454731,56.0132549339502,"76",NA
107000077,"Denmark_1",16,"JAVNGYDE B?K, OS RENSNINGSANL?G","Denmark","JAVNGYDE B?K","Jes Rasmussen",9.823385921,56.10710826,"Kicknet, 0.5mm mesh","composite of 12 samples totaling Ind/0.6 m^2","DNK_011_MZB_LO","DNK_011_MZB_LO_77",9.82338592124204,56.1071082625777,"77",NA
107000078,"Denmark_1",16,"SKJELLEGR?FTEN, SKJELLERUPGR?FTEN","Denmark","SKJELLEGR?FTEN","Jes Rasmussen",9.503971626,56.26013768,"Kicknet, 0.5mm mesh","composite of 12 samples totaling Ind/0.6 m^2","DNK_011_MZB_LO","DNK_011_MZB_LO_78",9.50397162610494,56.2601376767035,"78",NA
107000079,"Denmark_1",16,"STABELB?K, RYVADS BRO","Denmark","STABELB?K","Jes Rasmussen",9.907728665,56.10812554,"Kicknet, 0.5mm mesh","composite of 12 samples totaling Ind/0.6 m^2","DNK_011_MZB_LO","DNK_011_MZB_LO_79",9.90772866482119,56.1081255422424,"79",NA
107000080,"Denmark_1",16,"?LHOLM B?K, ?LHOLM","Denmark","?LHOLM B?K","Jes Rasmussen",9.506319744,55.84029485,"Kicknet, 0.5mm mesh","composite of 12 samples totaling Ind/0.6 m^2","DNK_011_MZB_LO","DNK_011_MZB_LO_80",9.50631974362993,55.8402948497624,"80",NA
107000081,"Denmark_1",16,"HOLMSB?K, OPST. HOLMSB?K","Denmark","HOLMSB?K","Jes Rasmussen",9.808309694,56.10892401,"Kicknet, 0.5mm mesh","composite of 12 samples totaling Ind/0.6 m^2","DNK_011_MZB_LO","DNK_011_MZB_LO_81",9.80830969416193,56.1089240061861,"81",NA
107000082,"Denmark_1",16,"BJERGSKOV B?K, HEM","Denmark","BJERGSKOV B?K","Jes Rasmussen",9.783656329,56.02484698,"Kicknet, 0.5mm mesh","composite of 12 samples totaling Ind/0.6 m^2","DNK_011_MZB_LO","DNK_011_MZB_LO_82",9.78365632899499,56.0248469834044,"82",NA
107000083,"Denmark_1",16,"N?RRE ?, NYBRO","Denmark","N?RRE ?","Jes Rasmussen",9.613826894,56.44873211,"Kicknet, 0.5mm mesh","composite of 12 samples totaling Ind/0.6 m^2","DNK_011_MZB_LO","DNK_011_MZB_LO_83",9.61382689365134,56.4487321101186,"83",NA
107000084,"Denmark_1",16,"RISVANG B?K, NS. VEJEN SP?RRING-H?RUP","Denmark","RISVANG B?K","Jes Rasmussen",10.19274257,56.28984861,"Kicknet, 0.5mm mesh","composite of 12 samples totaling Ind/0.6 m^2","DNK_011_MZB_LO","DNK_011_MZB_LO_84",10.1927425717728,56.2898486100472,"84",NA
107000085,"Denmark_1",16,"VL S FOR SKADER, OS SKADER ?","Denmark","VL S FOR SKADER","Jes Rasmussen",10.21376569,56.35060926,"Kicknet, 0.5mm mesh","composite of 12 samples totaling Ind/0.6 m^2","DNK_011_MZB_LO","DNK_011_MZB_LO_85",10.2137656919792,56.3506092563959,"85",NA
107000086,"Denmark_1",16,"DALSG?RDE B?K BJERRINGBRO, DALSG?RDE","Denmark","DALSG?RDE B?K BJERRINGBRO","Jes Rasmussen",9.574241728,56.40127675,"Kicknet, 0.5mm mesh","composite of 12 samples totaling Ind/0.6 m^2","DNK_011_MZB_LO","DNK_011_MZB_LO_86",9.57424172846398,56.4012767501849,"86",NA
107000087,"Denmark_1",16,"HEDEM?LLE B?K, 200M OS HEDEM?LLE","Denmark","HEDEM?LLE B?K","Jes Rasmussen",9.642860037,56.39746309,"Kicknet, 0.5mm mesh","composite of 12 samples totaling Ind/0.6 m^2","DNK_011_MZB_LO","DNK_011_MZB_LO_87",9.64286003661889,56.3974630858637,"87",NA
107000088,"Denmark_1",16,"GINNERUP B?K, VED GINNERUPG?RD","Denmark","GINNERUP B?K","Jes Rasmussen",10.10138095,56.3769608,"Kicknet, 0.5mm mesh","composite of 12 samples totaling Ind/0.6 m^2","DNK_011_MZB_LO","DNK_011_MZB_LO_88",10.1013809490729,56.3769607960123,"88",NA
107000089,"Denmark_1",16,"HEDEB?K, ?st-syd?st f. Langmoseg?rd","Denmark","HEDEB?K","Jes Rasmussen",10.02320063,56.39988627,"Kicknet, 0.5mm mesh","composite of 12 samples totaling Ind/0.6 m^2","DNK_011_MZB_LO","DNK_011_MZB_LO_89",10.0232006335393,56.3998862679689,"89",NA
107000090,"Denmark_1",16,"ELLEB?K, ELLEB?K BRO","Denmark","ELLEB?K","Jes Rasmussen",8.560817604,56.37771411,"Kicknet, 0.5mm mesh","composite of 12 samples totaling Ind/0.6 m^2","DNK_011_MZB_LO","DNK_011_MZB_LO_90",8.56081760438642,56.3777141071952,"90",NA
107000091,"Denmark_1",16,"R?STED LILLE ?, HVODAL","Denmark","R?STED LILLE ?","Jes Rasmussen",8.405613659,56.3246151,"Kicknet, 0.5mm mesh","composite of 12 samples totaling Ind/0.6 m^2","DNK_011_MZB_LO","DNK_011_MZB_LO_91",8.40561365864034,56.3246150972575,"91",NA
107000092,"Denmark_1",16,"SUNDS M?LLEB?K, GAMMEL SUNDS","Denmark","SUNDS M?LLEB?K","Jes Rasmussen",9.046845391,56.20712127,"Kicknet, 0.5mm mesh","composite of 12 samples totaling Ind/0.6 m^2","DNK_011_MZB_LO","DNK_011_MZB_LO_92",9.04684539148275,56.2071212655943,"92",NA
107000093,"Denmark_1",16,"HAMMERUM ?, V. BIRK","Denmark","HAMMERUM ?","Jes Rasmussen",9.05024721,56.12112731,"Kicknet, 0.5mm mesh","composite of 12 samples totaling Ind/0.6 m^2","DNK_011_MZB_LO","DNK_011_MZB_LO_93",9.050247210162,56.1211273145453,"93",NA
107000094,"Denmark_1",16,"RISKJ?R B?K, V. B?KKELUND","Denmark","RISKJ?R B?K","Jes Rasmussen",8.472639667,56.44290334,"Kicknet, 0.5mm mesh","composite of 12 samples totaling Ind/0.6 m^2","DNK_011_MZB_LO","DNK_011_MZB_LO_94",8.47263966655641,56.442903344322,"94",NA
107000095,"Denmark_1",16,"RAMME ?, V. MELLEMM?LLE","Denmark","RAMME ?","Jes Rasmussen",8.196118748,56.47271387,"Kicknet, 0.5mm mesh","composite of 12 samples totaling Ind/0.6 m^2","DNK_011_MZB_LO","DNK_011_MZB_LO_95",8.19611874803558,56.4727138714018,"95",NA
107000096,"Denmark_1",16,"SAVSTRUP ?, V. ST. TOVSTRUP","Denmark","SAVSTRUP ?","Jes Rasmussen",8.736779614,56.3588959,"Kicknet, 0.5mm mesh","composite of 12 samples totaling Ind/0.6 m^2","DNK_011_MZB_LO","DNK_011_MZB_LO_96",8.73677961393414,56.3588959034481,"96",NA
107000097,"Denmark_1",16,"STOR?, Rotvig Bro","Denmark","STOR?","Jes Rasmussen",8.845991642,56.31455267,"Kicknet, 0.5mm mesh","composite of 12 samples totaling Ind/0.6 m^2","DNK_011_MZB_LO","DNK_011_MZB_LO_97",8.84599164178421,56.3145526746317,"97",NA
107000098,"Denmark_1",16,"DYBE ?, V. ASTRUPM?LLE BRO","Denmark","DYBE ?","Jes Rasmussen",8.137700946,56.487497,"Kicknet, 0.5mm mesh","composite of 12 samples totaling Ind/0.6 m^2","DNK_011_MZB_LO","DNK_011_MZB_LO_98",8.13770094633677,56.4874969960699,"98",NA
107000099,"Denmark_1",16,"IDOM ?, SYD FOR ORMSTRUP","Denmark","IDOM ?","Jes Rasmussen",8.511263082,56.29464596,"Kicknet, 0.5mm mesh","composite of 12 samples totaling Ind/0.6 m^2","DNK_011_MZB_LO","DNK_011_MZB_LO_99",8.51126308249093,56.2946459626123,"99",NA
107000100,"Denmark_1",16,"HESTB?K MOSEGR?FT, NORD FOR BUR","Denmark","HESTB?K MOSEGR?FT","Jes Rasmussen",8.428479134,56.4100043,"Kicknet, 0.5mm mesh","composite of 12 samples totaling Ind/0.6 m^2","DNK_011_MZB_LO","DNK_011_MZB_LO_100",8.42847913374891,56.410004304508,"100",NA
107000101,"Denmark_1",16,"FLYNDER ?, VED K?RG?RD","Denmark","FLYNDER ?","Jes Rasmussen",8.312200967,56.44852397,"Kicknet, 0.5mm mesh","composite of 12 samples totaling Ind/0.6 m^2","DNK_011_MZB_LO","DNK_011_MZB_LO_101",8.31220096749021,56.4485239721146,"101",NA
107000102,"Denmark_1",16,"LUNDBY B?K, NORD FOR LERGRAV","Denmark","LUNDBY B?K","Jes Rasmussen",8.801507231,56.2859186,"Kicknet, 0.5mm mesh","composite of 12 samples totaling Ind/0.6 m^2","DNK_011_MZB_LO","DNK_011_MZB_LO_102",8.80150723112466,56.2859185980585,"102",NA
107000103,"Denmark_1",16,"GRYDE ?, VED NAGSTRUP BRO","Denmark","GRYDE ?","Jes Rasmussen",8.527076419,56.33949558,"Kicknet, 0.5mm mesh","composite of 12 samples totaling Ind/0.6 m^2","DNK_011_MZB_LO","DNK_011_MZB_LO_103",8.52707641933725,56.339495575688,"103",NA
107000104,"Denmark_1",16,"ULSTRUP B?K, VED EBELTOFTVEJEN","Denmark","ULSTRUP B?K","Jes Rasmussen",10.62465488,56.25912706,"Kicknet, 0.5mm mesh","composite of 12 samples totaling Ind/0.6 m^2","DNK_011_MZB_LO","DNK_011_MZB_LO_104",10.6246548773737,56.2591270592507,"104",NA
107000105,"Denmark_1",16,"OVST B?K, OVST BRO","Denmark","OVST B?K","Jes Rasmussen",10.53148062,56.26789911,"Kicknet, 0.5mm mesh","composite of 12 samples totaling Ind/0.6 m^2","DNK_011_MZB_LO","DNK_011_MZB_LO_105",10.5314806207253,56.2678991147502,"105",NA
107000106,"Denmark_1",16,"HEVRING ?, GAMMELBROVAD","Denmark","HEVRING ?","Jes Rasmussen",10.50458216,56.48820519,"Kicknet, 0.5mm mesh","composite of 12 samples totaling Ind/0.6 m^2","DNK_011_MZB_LO","DNK_011_MZB_LO_106",10.5045821590673,56.4882051866821,"106",NA
107000107,"Denmark_1",16,"KORUP ?, EBDRUP BRO","Denmark","KORUP ?","Jes Rasmussen",10.5362036,56.34702289,"Kicknet, 0.5mm mesh","composite of 12 samples totaling Ind/0.6 m^2","DNK_011_MZB_LO","DNK_011_MZB_LO_107",10.5362036037941,56.3470228861588,"107",NA
107000108,"Denmark_1",16,"FELDB?K, S? FOR FELDB?KG?RD","Denmark","FELDB?K","Jes Rasmussen",10.55419602,56.29843726,"Kicknet, 0.5mm mesh","composite of 12 samples totaling Ind/0.6 m^2","DNK_011_MZB_LO","DNK_011_MZB_LO_108",10.554196023489,56.2984372614643,"108",NA
107000109,"Denmark_1",16,"B?JSTRUP B?K, GEDEVAD BRO","Denmark","B?JSTRUP B?K","Jes Rasmussen",10.47993416,56.39321053,"Kicknet, 0.5mm mesh","composite of 12 samples totaling Ind/0.6 m^2","DNK_011_MZB_LO","DNK_011_MZB_LO_109",10.4799341640988,56.3932105252607,"109",NA
107000110,"Denmark_1",16,"BRANDE ?, HESSELBJERGE","Denmark","BRANDE ?","Jes Rasmussen",9.187389059,55.90397307,"Kicknet, 0.5mm mesh","composite of 12 samples totaling Ind/0.6 m^2","DNK_011_MZB_LO","DNK_011_MZB_LO_110",9.18738905869593,55.9039730742291,"110",NA
107000111,"Denmark_1",16,"OMME ?, SKOVSENDE","Denmark","OMME ?","Jes Rasmussen",8.857158693,55.8376775,"Kicknet, 0.5mm mesh","composite of 12 samples totaling Ind/0.6 m^2","DNK_011_MZB_LO","DNK_011_MZB_LO_111",8.85715869303002,55.8376775034899,"111",NA
107000112,"Denmark_1",16,"FJEDERHOLT ?, BIRKELUND","Denmark","FJEDERHOLT ?","Jes Rasmussen",9.140019417,56.10061778,"Kicknet, 0.5mm mesh","composite of 12 samples totaling Ind/0.6 m^2","DNK_011_MZB_LO","DNK_011_MZB_LO_112",9.14001941745315,56.1006177846469,"112",NA
107000113,"Denmark_1",16,"HERBORG B?K, OS HERBORG DAMBRUG","Denmark","HERBORG B?K","Jes Rasmussen",8.580646493,56.0681966,"Kicknet, 0.5mm mesh","composite of 12 samples totaling Ind/0.6 m^2","DNK_011_MZB_LO","DNK_011_MZB_LO_113",8.58064649322197,56.0681966012354,"113",NA
107000114,"Denmark_1",16,"KULSTR?M, KULHEDE - OS TILL?B","Denmark","KULSTR?M","Jes Rasmussen",9.342836959,55.80042523,"Kicknet, 0.5mm mesh","composite of 12 samples totaling Ind/0.6 m^2","DNK_011_MZB_LO","DNK_011_MZB_LO_114",9.34283695887988,55.8004252287252,"114",NA
107000115,"Denmark_1",16,"BINDESB?L B?K, S FOR KORSBJERGG?RD","Denmark","BINDESB?L B?K","Jes Rasmussen",9.215319948,55.77481902,"Kicknet, 0.5mm mesh","composite of 12 samples totaling Ind/0.6 m^2","DNK_011_MZB_LO","DNK_011_MZB_LO_115",9.21531994825005,55.7748190166273,"115",NA
107000116,"Denmark_1",16,"OMME ?, LANGELUND","Denmark","OMME ?","Jes Rasmussen",9.080507657,55.80761566,"Kicknet, 0.5mm mesh","composite of 12 samples totaling Ind/0.6 m^2","DNK_011_MZB_LO","DNK_011_MZB_LO_116",9.08050765711697,55.8076156568916,"116",NA
107000117,"Denmark_1",16,"M?LSTED B?K, F?R VORGOD ?","Denmark","M?LSTED B?K","Jes Rasmussen",8.748875663,56.13603066,"Kicknet, 0.5mm mesh","composite of 12 samples totaling Ind/0.6 m^2","DNK_011_MZB_LO","DNK_011_MZB_LO_117",8.74887566254073,56.1360306607365,"117",NA
107000118,"Denmark_1",16,"?LSTRUP B?K, S FOR ?LSTRUP","Denmark","?LSTRUP B?K","Jes Rasmussen",8.417317918,56.10902641,"Kicknet, 0.5mm mesh","composite of 12 samples totaling Ind/0.6 m^2","DNK_011_MZB_LO","DNK_011_MZB_LO_118",8.4173179179241,56.1090264078613,"118",NA
107000119,"Denmark_1",16,"GUNDESB?L ?, ? FOR M?GELMOSE","Denmark","GUNDESB?L ?","Jes Rasmussen",8.69245642,55.8621573,"Kicknet, 0.5mm mesh","composite of 12 samples totaling Ind/0.6 m^2","DNK_011_MZB_LO","DNK_011_MZB_LO_119",8.69245642031749,55.8621572966039,"119",NA
107000120,"Denmark_1",16,"HOVER ?, S.F. NY KIRKEG?RD","Denmark","HOVER ?","Jes Rasmussen",8.417431305,56.13983629,"Kicknet, 0.5mm mesh","composite of 12 samples totaling Ind/0.6 m^2","DNK_011_MZB_LO","DNK_011_MZB_LO_120",8.4174313054885,56.1398362944426,"120",NA
107000121,"Denmark_1",16,"VELLING-STAUNING LANDKANAL, VED GRIBSENG","Denmark","VELLING-STAUNING LANDKANAL","Jes Rasmussen",8.373388587,56.00702859,"Kicknet, 0.5mm mesh","composite of 12 samples totaling Ind/0.6 m^2","DNK_011_MZB_LO","DNK_011_MZB_LO_121",8.37338858678754,56.0070285871736,"121",NA
107000122,"Denmark_1",16,"BOLSVAD B?K, ?ST FOR TIMRING","Denmark","BOLSVAD B?K","Jes Rasmussen",8.714510046,56.17459949,"Kicknet, 0.5mm mesh","composite of 12 samples totaling Ind/0.6 m^2","DNK_011_MZB_LO","DNK_011_MZB_LO_122",8.71451004611044,56.1745994930287,"122",NA
107000123,"Denmark_1",16,"HARPESB?K, ?ST FOR BL?H?J","Denmark","HARPESB?K","Jes Rasmussen",9.079779948,55.87303724,"Kicknet, 0.5mm mesh","composite of 12 samples totaling Ind/0.6 m^2","DNK_011_MZB_LO","DNK_011_MZB_LO_123",9.07977994825886,55.8730372432442,"123",NA
107000124,"Denmark_1",16,"TIM ?, NORD?ST FOR GAMMELBY","Denmark","TIM ?","Jes Rasmussen",8.466512376,56.19563819,"Kicknet, 0.5mm mesh","composite of 12 samples totaling Ind/0.6 m^2","DNK_011_MZB_LO","DNK_011_MZB_LO_124",8.46651237615753,56.1956381913761,"124",NA
107000125,"Denmark_1",16,"STYG B?K, VED VESTERG?RDE","Denmark","STYG B?K","Jes Rasmussen",8.393727328,55.89509373,"Kicknet, 0.5mm mesh","composite of 12 samples totaling Ind/0.6 m^2","DNK_011_MZB_LO","DNK_011_MZB_LO_125",8.39372732832729,55.8950937349662,"125",NA
107000126,"Denmark_1",16,"HEMMET B?K, NORD FOR HEMMET","Denmark","HEMMET B?K","Jes Rasmussen",8.378661371,55.85521366,"Kicknet, 0.5mm mesh","composite of 12 samples totaling Ind/0.6 m^2","DNK_011_MZB_LO","DNK_011_MZB_LO_126",8.37866137083997,55.8552136565027,"126",NA
107000127,"Denmark_1",16,"RIND ?, F?R FJEDERHOLT ?","Denmark","RIND ?","Jes Rasmussen",8.955546253,56.09050937,"Kicknet, 0.5mm mesh","composite of 12 samples totaling Ind/0.6 m^2","DNK_011_MZB_LO","DNK_011_MZB_LO_127",8.9555462528503,56.0905093688823,"127",NA
107000128,"Denmark_1",16,"FISKB?K, SYD FOR FISKB?K","Denmark","FISKB?K","Jes Rasmussen",8.616708751,56.03882526,"Kicknet, 0.5mm mesh","composite of 12 samples totaling Ind/0.6 m^2","DNK_011_MZB_LO","DNK_011_MZB_LO_128",8.61670875063867,56.0388252582002,"128",NA
107000129,"Denmark_1",16,"VORGOD ?, VED EGERIS","Denmark","VORGOD ?","Jes Rasmussen",8.691485926,56.05696878,"Kicknet, 0.5mm mesh","composite of 12 samples totaling Ind/0.6 m^2","DNK_011_MZB_LO","DNK_011_MZB_LO_129",8.69148592565088,56.0569687762384,"129",NA
107000130,"Denmark_1",16,"Simmelb?k, ? for K?rhus.","Denmark","Simmelb?k","Jes Rasmussen",8.79628389,55.84231799,"Kicknet, 0.5mm mesh","composite of 12 samples totaling Ind/0.6 m^2","DNK_011_MZB_LO","DNK_011_MZB_LO_130",8.79628389035301,55.842317994335,"130",NA
107000131,"Denmark_1",16,"?RHUS ?, VED SKIBBY","Denmark","?RHUS ?","Jes Rasmussen",10.0406763,56.13495836,"Kicknet, 0.5mm mesh","composite of 12 samples totaling Ind/0.6 m^2","DNK_011_MZB_LO","DNK_011_MZB_LO_131",10.0406762984341,56.134958360268,"131",NA
107000132,"Denmark_1",16,"HEJB?K, HEJB?K BRO","Denmark","HEJB?K","Jes Rasmussen",10.321001,56.47209869,"Kicknet, 0.5mm mesh","composite of 12 samples totaling Ind/0.6 m^2","DNK_011_MZB_LO","DNK_011_MZB_LO_132",10.3210009973168,56.4720986857522,"132",NA
107000133,"Denmark_1",16,"VL. VED TOVSTRUP ?STERG?RD, LANGELINIE-VEJEN","Denmark","VL. VED TOVSTRUP ?STERG?RD","Jes Rasmussen",9.858771881,56.17405803,"Kicknet, 0.5mm mesh","composite of 12 samples totaling Ind/0.6 m^2","DNK_011_MZB_LO","DNK_011_MZB_LO_133",9.85877188068769,56.1740580264104,"133",NA
107000134,"Denmark_1",16,"F?B?K, F?B?K","Denmark","F?B?K","Jes Rasmussen",9.730512695,55.9319871,"Kicknet, 0.5mm mesh","composite of 12 samples totaling Ind/0.6 m^2","DNK_011_MZB_LO","DNK_011_MZB_LO_134",9.73051269527454,55.9319871020511,"134",NA
107000135,"Denmark_1",16,"ASB?K, VED FINDALG?RD","Denmark","ASB?K","Jes Rasmussen",10.12441643,56.00425846,"Kicknet, 0.5mm mesh","composite of 12 samples totaling Ind/0.6 m^2","DNK_011_MZB_LO","DNK_011_MZB_LO_135",10.1244164314432,56.0042584644122,"135",NA
107000136,"Denmark_1",16,"BYGHOLM ?, K?RUP BRO","Denmark","BYGHOLM ?","Jes Rasmussen",9.754632462,55.87258317,"Kicknet, 0.5mm mesh","composite of 12 samples totaling Ind/0.6 m^2","DNK_011_MZB_LO","DNK_011_MZB_LO_136",9.7546324620549,55.8725831672527,"136",NA
107000137,"Denmark_1",16,"SKJOLD ?, O.S. M?GELK?R RENS.","Denmark","SKJOLD ?","Jes Rasmussen",9.912029505,55.7909886,"Kicknet, 0.5mm mesh","composite of 12 samples totaling Ind/0.6 m^2","DNK_011_MZB_LO","DNK_011_MZB_LO_137",9.91202950525349,55.7909886036786,"137",NA
107000138,"Denmark_1",16,"FRISVAD M?LLEB?K, N? F. ARMVADG?RD","Denmark","FRISVAD M?LLEB?K","Jes Rasmussen",8.53380494,55.6549044,"Kicknet, 0.5mm mesh","composite of 12 samples totaling Ind/0.6 m^2","DNK_011_MZB_LO","DNK_011_MZB_LO_138",8.53380494027111,55.6549044004566,"138",NA
107000139,"Denmark_1",16,"HOLME ?, H?LLUND BRO","Denmark","HOLME ?","Jes Rasmussen",9.013983508,55.60476938,"Kicknet, 0.5mm mesh","composite of 12 samples totaling Ind/0.6 m^2","DNK_011_MZB_LO","DNK_011_MZB_LO_139",9.01398350753093,55.6047693783431,"139",NA
107000140,"Denmark_1",16,"TROESMOSE B?K, N FOR GAMMEL N?SBJERG","Denmark","TROESMOSE B?K","Jes Rasmussen",8.624166748,55.61884985,"Kicknet, 0.5mm mesh","composite of 12 samples totaling Ind/0.6 m^2","DNK_011_MZB_LO","DNK_011_MZB_LO_140",8.62416674824572,55.6188498491053,"140",NA
107000141,"Denmark_1",16,"MARIEB?K, BRO VED LANDEVVEJ 431","Denmark","MARIEB?K","Jes Rasmussen",8.414073955,55.62791951,"Kicknet, 0.5mm mesh","composite of 12 samples totaling Ind/0.6 m^2","DNK_011_MZB_LO","DNK_011_MZB_LO_141",8.41407395487455,55.6279195088089,"141",NA
107000142,"Denmark_1",16,"ANSAGER ?, NV FOR FALDH?JE","Denmark","ANSAGER ?","Jes Rasmussen",8.882722526,55.66223922,"Kicknet, 0.5mm mesh","composite of 12 samples totaling Ind/0.6 m^2","DNK_011_MZB_LO","DNK_011_MZB_LO_142",8.88272252594589,55.6622392165273,"142",NA
107000143,"Denmark_1",16,"VEJLE ?, HARALDSK?R","Denmark","VEJLE ?","Jes Rasmussen",9.440296417,55.70220993,"Kicknet, 0.5mm mesh","composite of 12 samples totaling Ind/0.6 m^2","DNK_011_MZB_LO","DNK_011_MZB_LO_143",9.44029641653638,55.7022099287081,"143",NA
107000144,"Denmark_1",16,"VEJLE ?, T.T., S?NDERSKOV,  NS RAVNING 1. DMB","Denmark","VEJLE ?, T.T.","Jes Rasmussen",9.346470662,55.67419726,"Kicknet, 0.5mm mesh","composite of 12 samples totaling Ind/0.6 m^2","DNK_011_MZB_LO","DNK_011_MZB_LO_144",9.34647066235313,55.6741972628212,"144",NA
107000145,"Denmark_1",16,"VEJLE ?, T.T., O.S. RAVNING 1 DAMBRUG","Denmark","VEJLE ?, T.T.","Jes Rasmussen",9.33916379,55.67688635,"Kicknet, 0.5mm mesh","composite of 12 samples totaling Ind/0.6 m^2","DNK_011_MZB_LO","DNK_011_MZB_LO_145",9.33916378984646,55.676886353544,"145",NA
107000146,"Denmark_1",16,"SPANG ? (BREDSTRUP ?), BREDSTRUP","Denmark","SPANG ? (BREDSTRUP ?)","Jes Rasmussen",9.649076193,55.58967291,"Kicknet, 0.5mm mesh","composite of 12 samples totaling Ind/0.6 m^2","DNK_011_MZB_LO","DNK_011_MZB_LO_146",9.64907619339709,55.5896729065483,"146",NA
107000147,"Denmark_1",16,"KOLDING ?, ALPEDALEN (S.F.ELMEH?J)","Denmark","KOLDING ?","Jes Rasmussen",9.436505673,55.49603923,"Kicknet, 0.5mm mesh","composite of 12 samples totaling Ind/0.6 m^2","DNK_011_MZB_LO","DNK_011_MZB_LO_147",9.43650567346539,55.4960392312701,"147",NA
107000148,"Denmark_1",16,"TANGG?RD B?K, N.?. FOR TANGG?RD","Denmark","TANGG?RD B?K","Jes Rasmussen",9.295541484,55.51374904,"Kicknet, 0.5mm mesh","composite of 12 samples totaling Ind/0.6 m^2","DNK_011_MZB_LO","DNK_011_MZB_LO_148",9.295541483674,55.5137490403229,"148",NA
107000149,"Denmark_1",16,"SNEUM ?, V. N?R? BRO","Denmark","SNEUM ?","Jes Rasmussen",8.696436373,55.49643192,"Kicknet, 0.5mm mesh","composite of 12 samples totaling Ind/0.6 m^2","DNK_011_MZB_LO","DNK_011_MZB_LO_149",8.69643637296349,55.4964319162409,"149",NA
107000150,"Denmark_1",16,"SM?RP?T B?K, V. A11","Denmark","SM?RP?T B?K","Jes Rasmussen",8.61637091,55.49839982,"Kicknet, 0.5mm mesh","composite of 12 samples totaling Ind/0.6 m^2","DNK_011_MZB_LO","DNK_011_MZB_LO_150",8.61637091003317,55.4983998160163,"150",NA
107000151,"Denmark_1",16,"STENDERUP B?K, BRO STENDERUP-TOB?L LANDEVEJ","Denmark","STENDERUP B?K","Jes Rasmussen",8.883940518,55.44371036,"Kicknet, 0.5mm mesh","composite of 12 samples totaling Ind/0.6 m^2","DNK_011_MZB_LO","DNK_011_MZB_LO_151",8.88394051769497,55.4437103634577,"151",NA
107000152,"Denmark_1",16,"VIB?K, VIB?K BRO","Denmark","VIB?K","Jes Rasmussen",8.720380352,55.50830514,"Kicknet, 0.5mm mesh","composite of 12 samples totaling Ind/0.6 m^2","DNK_011_MZB_LO","DNK_011_MZB_LO_152",8.7203803518001,55.5083051394737,"152",NA
107000153,"Denmark_1",16,"TUESB?L B?K, V FOR SOLVANG","Denmark","TUESB?L B?K","Jes Rasmussen",9.006759583,55.50064482,"Kicknet, 0.5mm mesh","composite of 12 samples totaling Ind/0.6 m^2","DNK_011_MZB_LO","DNK_011_MZB_LO_153",9.00675958336085,55.500644824461,"153",NA
107000154,"Denmark_1",16,"SIG- RODEB?K, NV FOR FLADS?G?RD","Denmark","SIG- RODEB?K","Jes Rasmussen",8.763404703,55.59988746,"Kicknet, 0.5mm mesh","composite of 12 samples totaling Ind/0.6 m^2","DNK_011_MZB_LO","DNK_011_MZB_LO_154",8.76340470266959,55.5998874632777,"154",NA
107000155,"Denmark_1",16,"LINDKNUD B?K, RESTAURERET (S49), ?F LINDKNUD","Denmark","LINDKNUD B?K","Jes Rasmussen",9.040610147,55.56715891,"Kicknet, 0.5mm mesh","composite of 12 samples totaling Ind/0.6 m^2","DNK_011_MZB_LO","DNK_011_MZB_LO_155",9.04061014707958,55.5671589070698,"155",NA
107000156,"Denmark_1",16,"SIIG B?K, SV FOR DYBMOSEG?RD","Denmark","SIIG B?K","Jes Rasmussen",8.813614946,55.42974941,"Kicknet, 0.5mm mesh","composite of 12 samples totaling Ind/0.6 m^2","DNK_011_MZB_LO","DNK_011_MZB_LO_156",8.81361494574032,55.4297494067674,"156",NA
107000157,"Denmark_1",16,"LINTRUP N?RREB?K, MARKVEJSUNDERF?. V. DAMG?RD","Denmark","LINTRUP N?RREB?K","Jes Rasmussen",8.994424319,55.41246777,"Kicknet, 0.5mm mesh","composite of 12 samples totaling Ind/0.6 m^2","DNK_011_MZB_LO","DNK_011_MZB_LO_157",8.99442431859654,55.4124677708883,"157",NA
107000158,"Denmark_1",16,"SOLK?R ?, M?LLEBRO","Denmark","SOLK?R ?","Jes Rasmussen",9.608581876,55.45916375,"Kicknet, 0.5mm mesh","composite of 12 samples totaling Ind/0.6 m^2","DNK_011_MZB_LO","DNK_011_MZB_LO_158",9.60858187555646,55.4591637543738,"158",NA
107000159,"Denmark_1",16,"K?R M?LLE ?, ?F R?RGENNEML?B, VED K?RM?LLE","Denmark","K?R M?LLE ?","Jes Rasmussen",9.551286112,55.37626126,"Kicknet, 0.5mm mesh","composite of 12 samples totaling Ind/0.6 m^2","DNK_011_MZB_LO","DNK_011_MZB_LO_159",9.55128611239261,55.3762612556787,"159",NA
107000160,"Denmark_1",16,"LUNDING B?K, VED LUNDING BY ?ST FOR STARUP MED UDL?B TIL HADERS","Denmark","LUNDING B?K","Jes Rasmussen",9.55410857,55.23483399,"Kicknet, 0.5mm mesh","composite of 12 samples totaling Ind/0.6 m^2","DNK_011_MZB_LO","DNK_011_MZB_LO_160",9.55410856956531,55.2348339935807,"160",NA
107000161,"Denmark_1",16,"KAMTRUP B?K, VEJ MELLEM OBBEK?R OG F?STED","Denmark","KAMTRUP B?K","Jes Rasmussen",8.898426986,55.3425696,"Kicknet, 0.5mm mesh","composite of 12 samples totaling Ind/0.6 m^2","DNK_011_MZB_LO","DNK_011_MZB_LO_161",8.89842698618717,55.3425696036183,"161",NA
107000162,"Denmark_1",16,"SELSK?R B?K, VED TINGVAD BRO","Denmark","SELSK?R B?K","Jes Rasmussen",9.249009584,55.29670938,"Kicknet, 0.5mm mesh","composite of 12 samples totaling Ind/0.6 m^2","DNK_011_MZB_LO","DNK_011_MZB_LO_162",9.24900958444706,55.296709382677,"162",NA
107000163,"Denmark_1",16,"K?RB?K, Ved bro, vejen fra Toftlund til Gram","Denmark","K?RB?K","Jes Rasmussen",9.045075528,55.22858016,"Kicknet, 0.5mm mesh","composite of 12 samples totaling Ind/0.6 m^2","DNK_011_MZB_LO","DNK_011_MZB_LO_163",9.04507552832758,55.2285801613567,"163",NA
107000164,"Denmark_1",16,"GELS ?, VED BRO I NEDER JERSTAL","Denmark","GELS ?","Jes Rasmussen",9.254166205,55.18432764,"Kicknet, 0.5mm mesh","composite of 12 samples totaling Ind/0.6 m^2","DNK_011_MZB_LO","DNK_011_MZB_LO_164",9.25416620505751,55.1843276392847,"164",NA
107000165,"Denmark_1",16,"VANDL?B I OBBEK?R ENGE, SV F LUNDVADG?RD","Denmark","VANDL?B I OBBEK?R ENGE","Jes Rasmussen",8.85930387,55.33046272,"Kicknet, 0.5mm mesh","composite of 12 samples totaling Ind/0.6 m^2","DNK_011_MZB_LO","DNK_011_MZB_LO_165",8.85930387005246,55.3304627218297,"165",NA
107000166,"Denmark_1",16,"DARUM B?K, V FOR BJERGET","Denmark","DARUM B?K","Jes Rasmussen",8.652663041,55.40360896,"Kicknet, 0.5mm mesh","composite of 12 samples totaling Ind/0.6 m^2","DNK_011_MZB_LO","DNK_011_MZB_LO_166",8.65266304057941,55.4036089599951,"166",NA
107000167,"Denmark_1",16,"FISKB?K, BRO P? VEJEN MELL. TOFTLUND,RU","Denmark","FISKB?K","Jes Rasmussen",9.05361514,55.17193716,"Kicknet, 0.5mm mesh","composite of 12 samples totaling Ind/0.6 m^2","DNK_011_MZB_LO","DNK_011_MZB_LO_167",9.05361514014029,55.1719371593811,"167",NA
107000168,"Denmark_1",16,"FISKB?K, BRO 100M NS TILL?B AF FEBRO B?","Denmark","FISKB?K","Jes Rasmussen",9.022685168,55.16986204,"Kicknet, 0.5mm mesh","composite of 12 samples totaling Ind/0.6 m^2","DNK_011_MZB_LO","DNK_011_MZB_LO_168",9.0226851684978,55.1698620446338,"168",NA
107000169,"Denmark_1",16,"BREDE ?, VEJBRO, MJOLDEN - RANDERUP","Denmark","BREDE ?","Jes Rasmussen",8.731977378,55.112471,"Kicknet, 0.5mm mesh","composite of 12 samples totaling Ind/0.6 m^2","DNK_011_MZB_LO","DNK_011_MZB_LO_169",8.7319773783545,55.1124709993596,"169",NA
107000170,"Denmark_1",16,"PULVERB?K, T.T.MJANG DAM, ALS","Denmark","PULVERB?K","Jes Rasmussen",9.930926702,54.94807645,"Kicknet, 0.5mm mesh","composite of 12 samples totaling Ind/0.6 m^2","DNK_011_MZB_LO","DNK_011_MZB_LO_170",9.93092670230672,54.9480764502665,"170",NA
107000171,"Denmark_1",16,"GILB?K, VEJ 1 KM F?R UDL. I ?STERS?EN","Denmark","GILB?K","Jes Rasmussen",9.832601447,55.04426476,"Kicknet, 0.5mm mesh","composite of 12 samples totaling Ind/0.6 m^2","DNK_011_MZB_LO","DNK_011_MZB_LO_171",9.83260144702751,55.0442647582713,"171",NA
107000172,"Denmark_1",16,"KOM. VDL. 16, SUNDEVED, SF BRO, ADSB?L - BOJSKOVSKOV","Denmark","KOM. VDL. 16, SUNDEVED","Jes Rasmussen",9.616408343,54.94540465,"Kicknet, 0.5mm mesh","composite of 12 samples totaling Ind/0.6 m^2","DNK_011_MZB_LO","DNK_011_MZB_LO_172",9.61640834302083,54.9454046485001,"172",NA
107000173,"Denmark_1",16,"GRENSB?K, ?F HOVEDVEJ A10, SF STRUTOM","Denmark","GRENSB?K","Jes Rasmussen",9.437559923,55.01432474,"Kicknet, 0.5mm mesh","composite of 12 samples totaling Ind/0.6 m^2","DNK_011_MZB_LO","DNK_011_MZB_LO_173",9.43755992287593,55.0143247416351,"173",NA
107000174,"Denmark_1",16,"BOLBRO B?K, BASSEKLINT","Denmark","BOLBRO B?K","Jes Rasmussen",9.090086182,55.06054006,"Kicknet, 0.5mm mesh","composite of 12 samples totaling Ind/0.6 m^2","DNK_011_MZB_LO","DNK_011_MZB_LO_174",9.09008618218244,55.0605400555769,"174",NA
107000175,"Denmark_1",16,"VESTRE RANDKANAL, VEJS OPH?R S? FOR NR. SEJERSLE","Denmark","VESTRE RANDKANAL","Jes Rasmussen",8.737122909,55.00679357,"Kicknet, 0.5mm mesh","composite of 12 samples totaling Ind/0.6 m^2","DNK_011_MZB_LO","DNK_011_MZB_LO_175",8.73712290938476,55.0067935663931,"175",NA
107000176,"Denmark_1",16,"BJERNDRUP M?LLE?, UNDERF?. S FOR UGE HEDE","Denmark","BJERNDRUP M?LLE?","Jes Rasmussen",9.343597851,54.95133438,"Kicknet, 0.5mm mesh","composite of 12 samples totaling Ind/0.6 m^2","DNK_011_MZB_LO","DNK_011_MZB_LO_176",9.34359785087874,54.9513343754574,"176",NA
107000177,"Denmark_1",16,"SURB?K, 300M OS SVEJLUND-SVEJLUNDSTOK","Denmark","SURB?K","Jes Rasmussen",9.160603787,55.06878882,"Kicknet, 0.5mm mesh","composite of 12 samples totaling Ind/0.6 m^2","DNK_011_MZB_LO","DNK_011_MZB_LO_177",9.16060378728068,55.0687888165311,"177",NA
107000178,"Denmark_1",16,"SEJERB?K, ?ST FOR BRO, VEJEN FRA H?JER","Denmark","SEJERB?K","Jes Rasmussen",8.71306594,54.95995558,"Kicknet, 0.5mm mesh","composite of 12 samples totaling Ind/0.6 m^2","DNK_011_MZB_LO","DNK_011_MZB_LO_178",8.71306593969103,54.9599555792876,"178",NA
107000179,"Denmark_1",16,"ARN?, SF VEJBRO VED ALSLEV","Denmark","ARN?","Jes Rasmussen",9.046027198,55.03129612,"Kicknet, 0.5mm mesh","composite of 12 samples totaling Ind/0.6 m^2","DNK_011_MZB_LO","DNK_011_MZB_LO_179",9.04602719789649,55.0312961242076,"179",NA
107000180,"Denmark_1",16,"KRAGELUND M?LLEB?K, NS. TOLSVAD BRO","Denmark","KRAGELUND M?LLEB?K","Jes Rasmussen",10.20587633,55.55485382,"Kicknet, 0.5mm mesh","composite of 12 samples totaling Ind/0.6 m^2","DNK_011_MZB_LO","DNK_011_MZB_LO_180",10.2058763251194,55.5548538209371,"180",NA
107000181,"Denmark_1",16,"RINGE ?, OS. RINGE M?LLE","Denmark","RINGE ?","Jes Rasmussen",10.28042134,55.56465666,"Kicknet, 0.5mm mesh","composite of 12 samples totaling Ind/0.6 m^2","DNK_011_MZB_LO","DNK_011_MZB_LO_181",10.2804213448516,55.5646566584034,"181",NA
107000182,"Denmark_1",16,"?RB?K, BYNKEL (1.275)","Denmark","?RB?K","Jes Rasmussen",10.73173912,55.29416624,"Kicknet, 0.5mm mesh","composite of 12 samples totaling Ind/0.6 m^2","DNK_011_MZB_LO","DNK_011_MZB_LO_182",10.7317391220687,55.2941662441828,"182",NA
107000183,"Denmark_1",16,"VINDINGE ?, NS ULLERSLEV RENS. (9.90)","Denmark","VINDINGE ?","Jes Rasmussen",10.67094804,55.34750802,"Kicknet, 0.5mm mesh","composite of 12 samples totaling Ind/0.6 m^2","DNK_011_MZB_LO","DNK_011_MZB_LO_183",10.6709480394986,55.3475080184524,"183",NA
107000184,"Denmark_1",16,"VINDINGE ?, FRELTOFTE","Denmark","VINDINGE ?","Jes Rasmussen",10.42140247,55.2881524,"Kicknet, 0.5mm mesh","composite of 12 samples totaling Ind/0.6 m^2","DNK_011_MZB_LO","DNK_011_MZB_LO_184",10.4214024688914,55.2881524039439,"184",NA
107000185,"Denmark_1",16,"ODENSE ?, EJBY M?LLE, NS RENS (ST 8.45)","Denmark","ODENSE ?","Jes Rasmussen",10.42302535,55.39988547,"Kicknet, 0.5mm mesh","composite of 12 samples totaling Ind/0.6 m^2","DNK_011_MZB_LO","DNK_011_MZB_LO_185",10.4230253461023,55.3998854650379,"185",NA
107000186,"Denmark_1",16,"ODENSE ?, Kratholm (22.35)","Denmark","ODENSE ?","Jes Rasmussen",10.32655741,55.33019046,"Kicknet, 0.5mm mesh","composite of 12 samples totaling Ind/0.6 m^2","DNK_011_MZB_LO","DNK_011_MZB_LO_186",10.3265574097883,55.3301904559007,"186",NA
107000187,"Denmark_1",16,"STAVIS ?, STAVIS BRO (ST 8.25)","Denmark","STAVIS ?","Jes Rasmussen",10.29334303,55.43224866,"Kicknet, 0.5mm mesh","composite of 12 samples totaling Ind/0.6 m^2","DNK_011_MZB_LO","DNK_011_MZB_LO_187",10.293343031915,55.4322486640024,"187",NA
107000188,"Denmark_1",16,"ODENSE ?, HILLERSLEV BRO","Denmark","ODENSE ?","Jes Rasmussen",10.32407065,55.19925179,"Kicknet, 0.5mm mesh","composite of 12 samples totaling Ind/0.6 m^2","DNK_011_MZB_LO","DNK_011_MZB_LO_188",10.3240706537778,55.1992517924089,"188",NA
107000189,"Denmark_1",16,"?SEMOSEB?KKEN, NEDSTR?MS LANGSTED","Denmark","?SEMOSEB?KKEN","Jes Rasmussen",10.19137436,55.2783824,"Kicknet, 0.5mm mesh","composite of 12 samples totaling Ind/0.6 m^2","DNK_011_MZB_LO","DNK_011_MZB_LO_189",10.1913743553202,55.2783824010701,"189",NA
107000190,"Denmark_1",16,"PILEB?KKEN, M?LLELAVET","Denmark","PILEB?KKEN","Jes Rasmussen",10.52000421,55.40195379,"Kicknet, 0.5mm mesh","composite of 12 samples totaling Ind/0.6 m^2","DNK_011_MZB_LO","DNK_011_MZB_LO_190",10.5200042062107,55.4019537896916,"190",NA
107000191,"Denmark_1",16,"H?GERUP ?, NEDSTR?MS H?GERUP","Denmark","H?GERUP ?","Jes Rasmussen",10.35469463,55.17289808,"Kicknet, 0.5mm mesh","composite of 12 samples totaling Ind/0.6 m^2","DNK_011_MZB_LO","DNK_011_MZB_LO_191",10.354694627798,55.1728980788817,"191",NA
107000192,"Denmark_1",16,"HOLMEHAVE B?K, NEDS. HOLMEHAVE RENSEANL?G","Denmark","HOLMEHAVE B?K","Jes Rasmussen",10.21780567,55.29839565,"Kicknet, 0.5mm mesh","composite of 12 samples totaling Ind/0.6 m^2","DNK_011_MZB_LO","DNK_011_MZB_LO_192",10.217805665666,55.2983956470828,"192",NA
107000193,"Denmark_1",16,"PUGE M?LLE?, SANDAGER KIRKEMADE (3.40)","Denmark","PUGE M?LLE?","Jes Rasmussen",9.929554056,55.32547138,"Kicknet, 0.5mm mesh","composite of 12 samples totaling Ind/0.6 m^2","DNK_011_MZB_LO","DNK_011_MZB_LO_193",9.92955405555238,55.3254713847105,"193",NA
107000194,"Denmark_1",16,"BRENDE ?, NEDSTR?MS BRED RENSEANL?G","Denmark","BRENDE ?","Jes Rasmussen",10.09434426,55.37540135,"Kicknet, 0.5mm mesh","composite of 12 samples totaling Ind/0.6 m^2","DNK_011_MZB_LO","DNK_011_MZB_LO_194",10.0943442585944,55.3754013482671,"194",NA
107000195,"Denmark_1",16,"LANGEMOSERENDEN, SALBROVAD","Denmark","LANGEMOSERENDEN","Jes Rasmussen",9.93755057,55.32570684,"Kicknet, 0.5mm mesh","composite of 12 samples totaling Ind/0.6 m^2","DNK_011_MZB_LO","DNK_011_MZB_LO_195",9.93755057032331,55.3257068362467,"195",NA
107000196,"Denmark_1",16,"HUNDSTRUP ?, ST 6.86","Denmark","HUNDSTRUP ?","Jes Rasmussen",10.4170968,55.09638196,"Kicknet, 0.5mm mesh","composite of 12 samples totaling Ind/0.6 m^2","DNK_011_MZB_LO","DNK_011_MZB_LO_196",10.4170968027498,55.0963819591599,"196",NA
107000197,"Denmark_1",16,"S?BORG KANAL, PARKVEJ","Denmark","S?BORG KANAL","Jes Rasmussen",12.30361731,56.11614557,"Kicknet, 0.5mm mesh","composite of 12 samples totaling Ind/0.6 m^2","DNK_011_MZB_LO","DNK_011_MZB_LO_197",12.3036173092306,56.116145567745,"197",NA
107000198,"Denmark_1",16,"?STERB?K, SV FOR STENSTRUPG?RD","Denmark","?STERB?K","Jes Rasmussen",12.46708043,56.08047981,"Kicknet, 0.5mm mesh","composite of 12 samples totaling Ind/0.6 m^2","DNK_011_MZB_LO","DNK_011_MZB_LO_198",12.4670804304882,56.0804798122415,"198",NA
107000199,"Denmark_1",16,"?BELHOLT ?, S?STERBRO M?LLE","Denmark","?BELHOLT ?","Jes Rasmussen",12.18845374,55.94731953,"Kicknet, 0.5mm mesh","composite of 12 samples totaling Ind/0.6 m^2","DNK_011_MZB_LO","DNK_011_MZB_LO_199",12.1884537402159,55.9473195269152,"199",NA
107000200,"Denmark_1",16,"DUMPEDALSRENDEN, VASEVEJ","Denmark","DUMPEDALSRENDEN","Jes Rasmussen",12.44781171,55.83024059,"Kicknet, 0.5mm mesh","composite of 12 samples totaling Ind/0.6 m^2","DNK_011_MZB_LO","DNK_011_MZB_LO_200",12.4478117119355,55.8302405930523,"200",NA
107000201,"Denmark_1",16,"M?LLE?, STAMPEN M?LLE","Denmark","M?LLE?","Jes Rasmussen",12.550076,55.80720553,"Kicknet, 0.5mm mesh","composite of 12 samples totaling Ind/0.6 m^2","DNK_011_MZB_LO","DNK_011_MZB_LO_201",12.5500760044371,55.8072055254096,"201",NA
107000202,"Denmark_1",16,"USSER?D ?, NIVE M?LLE","Denmark","USSER?D ?","Jes Rasmussen",12.49363054,55.92794096,"Kicknet, 0.5mm mesh","composite of 12 samples totaling Ind/0.6 m^2","DNK_011_MZB_LO","DNK_011_MZB_LO_202",12.4936305380037,55.927940960202,"202",NA
107000203,"Denmark_1",16,"KALVEMOSE ?, BUTTERUP BRO","Denmark","KALVEMOSE ?","Jes Rasmussen",11.62529041,55.70228781,"Kicknet, 0.5mm mesh","composite of 12 samples totaling Ind/0.6 m^2","DNK_011_MZB_LO","DNK_011_MZB_LO_203",11.6252904149947,55.7022878057819,"203",NA
107000204,"Denmark_1",16,"TUSE ?, NYBRO","Denmark","TUSE ?","Jes Rasmussen",11.58631057,55.7008862,"Kicknet, 0.5mm mesh","composite of 12 samples totaling Ind/0.6 m^2","DNK_011_MZB_LO","DNK_011_MZB_LO_204",11.5863105699216,55.7008861956061,"204",NA
107000205,"Denmark_1",16,"RUSRENDEN, S?NDERSTED-BORUP","Denmark","RUSRENDEN","Jes Rasmussen",11.62419734,55.62969015,"Kicknet, 0.5mm mesh","composite of 12 samples totaling Ind/0.6 m^2","DNK_011_MZB_LO","DNK_011_MZB_LO_205",11.6241973437542,55.6296901519104,"205",NA
107000206,"Denmark_1",16,"GISLINGE ?, PR?STEBRO","Denmark","GISLINGE ?","Jes Rasmussen",11.58117343,55.73835133,"Kicknet, 0.5mm mesh","composite of 12 samples totaling Ind/0.6 m^2","DNK_011_MZB_LO","DNK_011_MZB_LO_206",11.5811734344111,55.738351332974,"206",NA
107000207,"Denmark_1",16,"MADEMOSE ?, S FOR T?RSLEV","Denmark","MADEMOSE ?","Jes Rasmussen",12.03053641,55.80107949,"Kicknet, 0.5mm mesh","composite of 12 samples totaling Ind/0.6 m^2","DNK_011_MZB_LO","DNK_011_MZB_LO_207",12.0305364076825,55.8010794909417,"207",NA
107000208,"Denmark_1",16,"V?REBRO ?, V. VEKS? BRO","Denmark","V?REBRO ?","Jes Rasmussen",12.22627721,55.74085754,"Kicknet, 0.5mm mesh","composite of 12 samples totaling Ind/0.6 m^2","DNK_011_MZB_LO","DNK_011_MZB_LO_208",12.2262772094489,55.7408575385797,"208",NA
107000209,"Denmark_1",16,"MAGLEMOSE ?, ST.VALBY V. ?GERUPVEJ","Denmark","MAGLEMOSE ?","Jes Rasmussen",12.13825452,55.69316233,"Kicknet, 0.5mm mesh","composite of 12 samples totaling Ind/0.6 m^2","DNK_011_MZB_LO","DNK_011_MZB_LO_209",12.138254515833,55.6931623313821,"209",NA
107000210,"Denmark_1",16,"BUNDS?, 50 M OS V?REBRO OG JONSTRUP ?","Denmark","BUNDS?","Jes Rasmussen",12.29424252,55.77347795,"Kicknet, 0.5mm mesh","composite of 12 samples totaling Ind/0.6 m^2","DNK_011_MZB_LO","DNK_011_MZB_LO_210",12.2942425208989,55.7734779523749,"210",NA
107000211,"Denmark_1",16,"DAMHUS?EN, LANDLYSTVEJ","Denmark","DAMHUS?EN","Jes Rasmussen",12.47782124,55.66047368,"Kicknet, 0.5mm mesh","composite of 12 samples totaling Ind/0.6 m^2","DNK_011_MZB_LO","DNK_011_MZB_LO_211",12.4778212377993,55.6604736813623,"211",NA
107000212,"Denmark_1",16,"FLADMOSE ?, DYSSEG?RD","Denmark","FLADMOSE ?","Jes Rasmussen",11.39516734,55.22271871,"Kicknet, 0.5mm mesh","composite of 12 samples totaling Ind/0.6 m^2","DNK_011_MZB_LO","DNK_011_MZB_LO_212",11.395167338014,55.2227187097547,"212",NA
107000213,"Denmark_1",16,"HALLEBY ?, ?RES?","Denmark","HALLEBY ?","Jes Rasmussen",11.34301109,55.63840533,"Kicknet, 0.5mm mesh","composite of 12 samples totaling Ind/0.6 m^2","DNK_011_MZB_LO","DNK_011_MZB_LO_213",11.3430110928352,55.6384053257944,"213",NA
107000214,"Denmark_1",16,"M?LLERENDE, L?JESM?LLE","Denmark","M?LLERENDE","Jes Rasmussen",11.40945584,55.578172,"Kicknet, 0.5mm mesh","composite of 12 samples totaling Ind/0.6 m^2","DNK_011_MZB_LO","DNK_011_MZB_LO_214",11.4094558388869,55.5781719995555,"214",NA
107000215,"Denmark_1",16,"SKEE T?STRUP ?, SV FOR UDSTRUP","Denmark","SKEE T?STRUP ?","Jes Rasmussen",11.73410052,55.54665499,"Kicknet, 0.5mm mesh","composite of 12 samples totaling Ind/0.6 m^2","DNK_011_MZB_LO","DNK_011_MZB_LO_215",11.7341005163342,55.5466549882987,"215",NA
107000216,"Denmark_1",16,"SEERDRUP ?, JOHANNESDAL","Denmark","SEERDRUP ?","Jes Rasmussen",11.31491104,55.31879247,"Kicknet, 0.5mm mesh","composite of 12 samples totaling Ind/0.6 m^2","DNK_011_MZB_LO","DNK_011_MZB_LO_216",11.3149110376786,55.3187924692873,"216",NA
107000217,"Denmark_1",16,"TUDE?, SKR?THOLM","Denmark","TUDE?","Jes Rasmussen",11.48153159,55.50058166,"Kicknet, 0.5mm mesh","composite of 12 samples totaling Ind/0.6 m^2","DNK_011_MZB_LO","DNK_011_MZB_LO_217",11.4815315903717,55.5005816568963,"217",NA
107000218,"Denmark_1",16,"TUDE?, VALBYG?RD","Denmark","TUDE?","Jes Rasmussen",11.29463908,55.42726081,"Kicknet, 0.5mm mesh","composite of 12 samples totaling Ind/0.6 m^2","DNK_011_MZB_LO","DNK_011_MZB_LO_218",11.2946390771616,55.4272608131747,"218",NA
107000219,"Denmark_1",16,"B?STRUPRENDEN, S FOR B?STRUP","Denmark","B?STRUPRENDEN","Jes Rasmussen",11.43164835,55.3692158,"Kicknet, 0.5mm mesh","composite of 12 samples totaling Ind/0.6 m^2","DNK_011_MZB_LO","DNK_011_MZB_LO_219",11.4316483452594,55.3692157973629,"219",NA
107000220,"Denmark_1",16,"HULEB?K, HULEB?KSHUS","Denmark","HULEB?K","Jes Rasmussen",11.6044759,55.32478015,"Kicknet, 0.5mm mesh","composite of 12 samples totaling Ind/0.6 m^2","DNK_011_MZB_LO","DNK_011_MZB_LO_220",11.6044759016299,55.3247801545143,"220",NA
107000221,"Denmark_1",16,"SUS?, N?SBY BRO","Denmark","SUS?","Jes Rasmussen",11.64744007,55.38695199,"Kicknet, 0.5mm mesh","composite of 12 samples totaling Ind/0.6 m^2","DNK_011_MZB_LO","DNK_011_MZB_LO_221",11.6474400698369,55.3869519863023,"221",NA
107000222,"Denmark_1",16,"FLADS?, LILLE TVEDE","Denmark","FLADS?","Jes Rasmussen",11.87639958,55.20019744,"Kicknet, 0.5mm mesh","composite of 12 samples totaling Ind/0.6 m^2","DNK_011_MZB_LO","DNK_011_MZB_LO_222",11.8763995832297,55.2001974407243,"222",NA
107000223,"Denmark_1",16,"SALT? ?, SALT?","Denmark","SALT? ?","Jes Rasmussen",11.6337455,55.22455937,"Kicknet, 0.5mm mesh","composite of 12 samples totaling Ind/0.6 m^2","DNK_011_MZB_LO","DNK_011_MZB_LO_223",11.6337455028339,55.2245593736075,"223",NA
107000224,"Denmark_1",16,"RINGSTED ?, RINGSTED MARK","Denmark","RINGSTED ?","Jes Rasmussen",11.77821432,55.41990823,"Kicknet, 0.5mm mesh","composite of 12 samples totaling Ind/0.6 m^2","DNK_011_MZB_LO","DNK_011_MZB_LO_224",11.7782143222966,55.4199082256687,"224",NA
107000225,"Denmark_1",16,"F?REB?KKEN, HJ?LMS?LILLE","Denmark","F?REB?KKEN","Jes Rasmussen",11.80920297,55.36375175,"Kicknet, 0.5mm mesh","composite of 12 samples totaling Ind/0.6 m^2","DNK_011_MZB_LO","DNK_011_MZB_LO_225",11.8092029692911,55.3637517500838,"225",NA
107000226,"Denmark_1",16,"BORUP B?K, S?. F. LAMMESTRUP","Denmark","BORUP B?K","Jes Rasmussen",11.94974058,55.50898093,"Kicknet, 0.5mm mesh","composite of 12 samples totaling Ind/0.6 m^2","DNK_011_MZB_LO","DNK_011_MZB_LO_226",11.9497405776644,55.5089809297403,"226",NA
107000227,"Denmark_1",16,"TRYGGEV?LDE ?, V. LL. LINDE","Denmark","TRYGGEV?LDE ?","Jes Rasmussen",12.20428161,55.33431761,"Kicknet, 0.5mm mesh","composite of 12 samples totaling Ind/0.6 m^2","DNK_011_MZB_LO","DNK_011_MZB_LO_227",12.2042816115589,55.3343176099053,"227",NA
107000228,"Denmark_1",16,"Vedsk?lle ? (Kvl.151), V. BILLESBORG","Denmark","Vedsk?lle ? (Kvl.151)","Jes Rasmussen",12.20257394,55.42818179,"Kicknet, 0.5mm mesh","composite of 12 samples totaling Ind/0.6 m^2","DNK_011_MZB_LO","DNK_011_MZB_LO_228",12.2025739389547,55.4281817933291,"228",NA
107000229,"Denmark_1",16,"FAKSE ?, BORRESHOVED","Denmark","FAKSE ?","Jes Rasmussen",12.13064059,55.22933758,"Kicknet, 0.5mm mesh","composite of 12 samples totaling Ind/0.6 m^2","DNK_011_MZB_LO","DNK_011_MZB_LO_229",12.1306405864474,55.2293375795032,"229",NA
107000230,"Denmark_1",16,"LANDSLEDGR?FT, R?BYLILLE","Denmark","LANDSLEDGR?FT","Jes Rasmussen",12.38297707,54.98887518,"Kicknet, 0.5mm mesh","composite of 12 samples totaling Ind/0.6 m^2","DNK_011_MZB_LO","DNK_011_MZB_LO_230",12.3829770650679,54.9888751781847,"230",NA
107000231,"Denmark_1",16,"MERN ?, V?RAGERBRO","Denmark","MERN ?","Jes Rasmussen",12.0873819,55.04610357,"Kicknet, 0.5mm mesh","composite of 12 samples totaling Ind/0.6 m^2","DNK_011_MZB_LO","DNK_011_MZB_LO_231",12.0873819037061,55.0461035653056,"231",NA
107000232,"Denmark_1",16,"GRYNHOLMS KANAL, F?REB?KS BRO","Denmark","GRYNHOLMS KANAL","Jes Rasmussen",11.8056088,55.10008132,"Kicknet, 0.5mm mesh","composite of 12 samples totaling Ind/0.6 m^2","DNK_011_MZB_LO","DNK_011_MZB_LO_232",11.80560879592,55.1000813161938,"232",NA
107000233,"Denmark_1",16,"FAKSE ?, HULH?J","Denmark","FAKSE ?","Jes Rasmussen",12.1430997,55.21977445,"Kicknet, 0.5mm mesh","composite of 12 samples totaling Ind/0.6 m^2","DNK_011_MZB_LO","DNK_011_MZB_LO_233",12.1430997035365,55.2197744515742,"233",NA
107000234,"Denmark_1",16,"FAKSE ?, N FOR ?STERG?RD","Denmark","FAKSE ?","Jes Rasmussen",12.110111,55.24181166,"Kicknet, 0.5mm mesh","composite of 12 samples totaling Ind/0.6 m^2","DNK_011_MZB_LO","DNK_011_MZB_LO_234",12.1101110008332,55.2418116604966,"234",NA
107000235,"Denmark_1",16,"PILEB?K, T.T., V FOR LYDERSLEV","Denmark","PILEB?K, T.T.","Jes Rasmussen",12.27586966,55.27292314,"Kicknet, 0.5mm mesh","composite of 12 samples totaling Ind/0.6 m^2","DNK_011_MZB_LO","DNK_011_MZB_LO_235",12.2758696627285,55.2729231424931,"235",NA
107000236,"Denmark_1",16,"GEDSERG?RDSL?BET ,21, B?T? NOR","Denmark","GEDSERG?RDSL?BET ,21","Jes Rasmussen",11.9144684,54.64563211,"Kicknet, 0.5mm mesh","composite of 12 samples totaling Ind/0.6 m^2","DNK_011_MZB_LO","DNK_011_MZB_LO_236",11.9144684042608,54.6456321080107,"236",NA
107000237,"Denmark_1",16,"SYDKANALEN, GEDESBY NYBY","Denmark","SYDKANALEN","Jes Rasmussen",11.94062462,54.6048821,"Kicknet, 0.5mm mesh","composite of 12 samples totaling Ind/0.6 m^2","DNK_011_MZB_LO","DNK_011_MZB_LO_237",11.9406246153435,54.6048820993797,"237",NA
107000238,"Denmark_1",16,"TINGSTED ?, FJ?LLEBRO","Denmark","TINGSTED ?","Jes Rasmussen",11.93351601,54.83184664,"Kicknet, 0.5mm mesh","composite of 12 samples totaling Ind/0.6 m^2","DNK_011_MZB_LO","DNK_011_MZB_LO_238",11.9335160088471,54.8318466437917,"238",NA
107000239,"Denmark_1",16,"H?JVADS RENDE, LILLE ROSNING","Denmark","H?JVADS RENDE","Jes Rasmussen",11.28579963,54.86710789,"Kicknet, 0.5mm mesh","composite of 12 samples totaling Ind/0.6 m^2","DNK_011_MZB_LO","DNK_011_MZB_LO_239",11.2857996303931,54.8671078894216,"239",NA
107000240,"Denmark_1",16,"GJEDDEL?BET, V FOR BREGNINGE","Denmark","GJEDDEL?BET","Jes Rasmussen",11.69350854,54.71937281,"Kicknet, 0.5mm mesh","composite of 12 samples totaling Ind/0.6 m^2","DNK_011_MZB_LO","DNK_011_MZB_LO_240",11.6935085405436,54.7193728116596,"240",NA
107000241,"Denmark_1",16,"N?LDEVADS ?, STR?DESKOV (32L)","Denmark","N?LDEVADS ?","Jes Rasmussen",11.47027346,54.82685321,"Kicknet, 0.5mm mesh","composite of 12 samples totaling Ind/0.6 m^2","DNK_011_MZB_LO","DNK_011_MZB_LO_241",11.4702734596075,54.8268532069983,"241",NA
107000242,"Denmark_1",16,"R?DBY KANAL, NS GERRINGE B?K","Denmark","R?DBY KANAL","Jes Rasmussen",11.31888869,54.70491741,"Kicknet, 0.5mm mesh","composite of 12 samples totaling Ind/0.6 m^2","DNK_011_MZB_LO","DNK_011_MZB_LO_242",11.3188886895624,54.7049174124473,"242",NA
107000243,"Denmark_1",16,"Bagge ?, ved m?lestation 650 m OS havet","Denmark","Bagge ?","Jes Rasmussen",14.71282484,55.15281153,"Kicknet, 0.5mm mesh","composite of 12 samples totaling Ind/0.6 m^2","DNK_011_MZB_LO","DNK_011_MZB_LO_243",14.7128248397123,55.1528115293038,"243",NA
107000244,"Denmark_1",16,"Nydams ?, Sigtebro","Denmark","Nydams ?","Jes Rasmussen",14.91490072,55.09150036,"Kicknet, 0.5mm mesh","composite of 12 samples totaling Ind/0.6 m^2","DNK_011_MZB_LO","DNK_011_MZB_LO_244",14.9149007242151,55.0915003642268,"244",NA
107000245,"Denmark_1",16,"Till?b til Samsing? fra Egevan, ?byvej","Denmark","Till?b til Samsing? fra Egevan","Jes Rasmussen",14.74254536,55.16662388,"Kicknet, 0.5mm mesh","composite of 12 samples totaling Ind/0.6 m^2","DNK_011_MZB_LO","DNK_011_MZB_LO_245",14.7425453578086,55.1666238776706,"245",NA
107000246,"Denmark_1",16,"?le ?, S? for Boesg?rd","Denmark","?le ?","Jes Rasmussen",14.99540359,55.00471947,"Kicknet, 0.5mm mesh","composite of 12 samples totaling Ind/0.6 m^2","DNK_011_MZB_LO","DNK_011_MZB_LO_246",14.9954035935184,55.0047194676356,"246",NA
107000247,"Denmark_1",16,"Spager?, Spagerbro","Denmark","Spager?","Jes Rasmussen",14.94069684,55.16967478,"Kicknet, 0.5mm mesh","composite of 12 samples totaling Ind/0.6 m^2","DNK_011_MZB_LO","DNK_011_MZB_LO_247",14.9406968359799,55.1696747823209,"247",NA
107000248,"Denmark_1",16,"Melsted ?, ? for Lenseng","Denmark","Melsted ?","Jes Rasmussen",14.9560968,55.19554324,"Kicknet, 0.5mm mesh","composite of 12 samples totaling Ind/0.6 m^2","DNK_011_MZB_LO","DNK_011_MZB_LO_248",14.9560967952551,55.1955432420733,"248",NA
101000001,"Estonia_1",4,"Separa","Estonia","Avij?gi Stream","Timm Henn",27.0306,58.9657,"Kicknet","Ind/1.25 m^2 (five 0.25 samples)","EST_012_MZB_LO","EST_012_MZB_LO_1",27.0306,58.9657,"1",NA
101000002,"Estonia_1",4,"Sae","Estonia","Pudisoo Stream","Timm Henn",25.5948,59.5086,"Kicknet","Ind/1.25 m^2 (five 0.25 samples)","EST_012_MZB_LO","EST_012_MZB_LO_2",25.5948,59.5086,"2",NA
101000003,"Estonia_1",4,"Pajusi","Estonia","P?ltsamaa Stream","Timm Henn",25.9281,58.704,"Kicknet","Ind/1.25 m^2 (five 0.25 samples)","EST_012_MZB_LO","EST_012_MZB_LO_3",25.9281,58.704,"3",NA
101000004,"Estonia_1",4,"Laadi","Estonia","Reiu Stream","Timm Henn",24.6416,58.2711,"Kicknet","Ind/1.25 m^2 (five 0.25 samples)","EST_012_MZB_LO","EST_012_MZB_LO_4",24.6416,58.2711,"4",NA
101000005,"Estonia_1",4,"downstream","Estonia","Saarj?gi Stream","Timm Henn",25.2476,58.6068,"Kicknet","Ind/1.25 m^2 (five 0.25 samples)","EST_012_MZB_LO","EST_012_MZB_LO_5",25.2476,58.6068,"5",NA
101000006,"Estonia_1",4,"J?ek‰‰ru","Estonia","Selja Stream","Timm Henn",26.3367,59.5071,"Kicknet","Ind/1.25 m^2 (five 0.25 samples)","EST_012_MZB_LO","EST_012_MZB_LO_6",26.3367,59.5071,"6",NA
101000007,"Estonia_1",4,"Valgu","Estonia","Velise Stream","Timm Henn",24.5674,58.8093,"Kicknet","Ind/1.25 m^2 (five 0.25 samples)","EST_012_MZB_LO","EST_012_MZB_LO_7",24.5674,58.8093,"7",NA
101000008,"Estonia_1",4,"Vihterpalu","Estonia","Vihterpalu Stream","Timm Henn",23.8735,59.26,"Kicknet","Ind/1.25 m^2 (five 0.25 samples)","EST_012_MZB_LO","EST_012_MZB_LO_8",23.8735,59.26,"8",NA
101000009,"Estonia_1",4,"S¸vahavva","Estonia","V?handu Stream","Timm Henn",27.2177,57.9892,"Kicknet","Ind/1.25 m^2 (five 0.25 samples)","EST_012_MZB_LO","EST_012_MZB_LO_9",27.2177,57.9892,"9",NA
101000010,"Estonia_1",4,"H‰rma","Estonia","?hne Stream","Timm Henn",25.959,58.0275,"Kicknet","Ind/1.25 m^2 (five 0.25 samples)","EST_012_MZB_LO","EST_012_MZB_LO_10",25.959,58.0275,"10",NA
119000001,"Finland_1",39,"Oulanka Research Station (Oulanka LTER)","Finland","Hangasjarvi","Kaisa-Leena Huttunen",29.334205,66.335013,"Multi-habitat Kicknet (Mykra et al., 2006)","Ind/sample","FIN_013_MZB_LO","FIN_013_MZB_LO_10",29.391159,66.216611,"10",NA
119000002,"Finland_1",39,"Oulanka Research Station (Oulanka LTER)","Finland","Kantojoki","Kaisa-Leena Huttunen",29.128373,66.223412,"Multi-habitat Kicknet (Mykra et al., 2006)","Ind/sample","FIN_013_MZB_LO","FIN_013_MZB_LO_9",29.518193,66.337734,"9",NA
119000003,"Finland_1",39,"Oulanka Research Station (Oulanka LTER)","Finland","Kotioja","Kaisa-Leena Huttunen",29.426609,66.382179,"Multi-habitat Kicknet (Mykra et al., 2006)","Ind/sample","FIN_013_MZB_LO","FIN_013_MZB_LO_8",29.13634,66.191183,"8",NA
119000004,"Finland_1",39,"Oulanka Research Station (Oulanka LTER)","Finland","Matinjarvenpuro","Kaisa-Leena Huttunen",29.579633,66.381838,"Multi-habitat Kicknet (Mykra et al., 2006)","Ind/sample","FIN_013_MZB_LO","FIN_013_MZB_LO_7",29.423721,66.379146,"7",NA
119000005,"Finland_1",39,"Oulanka Research Station (Oulanka LTER)","Finland","Pessarinpuro","Kaisa-Leena Huttunen",29.163472,66.207575,"Multi-habitat Kicknet (Mykra et al., 2006)","Ind/sample","FIN_013_MZB_LO","FIN_013_MZB_LO_6",29.401541,66.212673,"6",NA
119000006,"Finland_1",39,"Oulanka Research Station (Oulanka LTER)","Finland","Porontimajoki","Kaisa-Leena Huttunen",29.401541,66.212673,"Multi-habitat Kicknet (Mykra et al., 2006)","Ind/sample","FIN_013_MZB_LO","FIN_013_MZB_LO_5",29.163472,66.207575,"5",NA
119000007,"Finland_1",39,"Oulanka Research Station (Oulanka LTER)","Finland","Putaanoja","Kaisa-Leena Huttunen",29.423721,66.379146,"Multi-habitat Kicknet (Mykra et al., 2006)","Ind/sample","FIN_013_MZB_LO","FIN_013_MZB_LO_4",29.579633,66.381838,"4",NA
119000008,"Finland_1",39,"Oulanka Research Station (Oulanka LTER)","Finland","Salmilampi","Kaisa-Leena Huttunen",29.13634,66.191183,"Multi-habitat Kicknet (Mykra et al., 2006)","Ind/sample","FIN_013_MZB_LO","FIN_013_MZB_LO_3",29.426609,66.382179,"3",NA
119000009,"Finland_1",39,"Oulanka Research Station (Oulanka LTER)","Finland","Uopajanpuro","Kaisa-Leena Huttunen",29.518193,66.337734,"Multi-habitat Kicknet (Mykra et al., 2006)","Ind/sample","FIN_013_MZB_LO","FIN_013_MZB_LO_2",29.128373,66.223412,"2",NA
119000010,"Finland_1",39,"Oulanka Research Station (Oulanka LTER)","Finland","Vansselinpuro","Kaisa-Leena Huttunen",29.391159,66.216611,"Multi-habitat Kicknet (Mykra et al., 2006)","Ind/sample","FIN_013_MZB_LO","FIN_013_MZB_LO_1",29.334205,66.335013,"1",NA
100000001,"France_1",1,"svd","France","Rhone","Maxence Forcellini",5.294382,45.829523,"multiplate artificial substratum","Ind/0.12 m^2","FRA_014_MZB_LO","FRA_014_MZB_LO_2",5.299435,45.8323815,"svd",NA
100000002,"France_1",1,"svg","France","Rhone","Maxence Forcellini",5.299435,45.8323815,"multiplate artificial substratum","Ind/0.12 m^2","FRA_014_MZB_LO","FRA_014_MZB_LO_1",5.294382,45.829523,"svg",NA
100000003,"France_2",2,"1100000","France","AUTHIE","Mathieu Floury",1.918195639,50.30448305,"multi-habitat sampling","Ind/0.4m≤","FRA_016_MZB_LO","FRA_016_MZB_LO_1",1.9181956390869,50.3044830483438,"1100000",NA
100000004,"France_2",2,"1133000","France","ANCRE","Mathieu Floury",2.513745757,49.9332428,"multi-habitat sampling","Ind/0.4m≤","FRA_016_MZB_LO","FRA_016_MZB_LO_2",2.51374575721963,49.9332428038602,"1133000",NA
100000005,"France_2",2,"1137000","France","NOYE","Mathieu Floury",2.385456242,49.79422815,"multi-habitat sampling","Ind/0.4m≤","FRA_016_MZB_LO","FRA_016_MZB_LO_3",2.38545624170488,49.7942281526233,"1137000",NA
100000006,"France_2",2,"1138100","France","SELLE","Mathieu Floury",2.169124882,49.71432717,"multi-habitat sampling","Ind/0.4m≤","FRA_016_MZB_LO","FRA_016_MZB_LO_4",2.1691248820565,49.7143271695771,"1138100",NA
100000007,"France_2",2,"1138300","France","EVOISSONS","Mathieu Floury",2.016358357,49.74211763,"multi-habitat sampling","Ind/0.4m≤","FRA_016_MZB_LO","FRA_016_MZB_LO_5",2.01635835702,49.742117634463,"1138300",NA
100000009,"France_2",2,"2005700","France","DOLLER","Mathieu Floury",7.232714668,47.74561836,"multi-habitat sampling","Ind/0.4m≤","FRA_016_MZB_LO","FRA_016_MZB_LO_7",7.23271466765698,47.7456183638327,"2005700",NA
100000010,"France_2",2,"2010000","France","THUR","Mathieu Floury",7.264966594,47.82728771,"multi-habitat sampling","Ind/0.4m≤","FRA_016_MZB_LO","FRA_016_MZB_LO_8",7.26496659401651,47.8272877074285,"2010000",NA
100000011,"France_2",2,"2013000","France","ILL","Mathieu Floury",7.398563309,47.96762657,"multi-habitat sampling","Ind/0.4m≤","FRA_016_MZB_LO","FRA_016_MZB_LO_9",7.3985633089208,47.9676265679576,"2013000",NA
100000012,"France_2",2,"2041650","France","ZINSEL DU NORD","Mathieu Floury",7.592563171,48.91860206,"multi-habitat sampling","Ind/0.4m≤","FRA_016_MZB_LO","FRA_016_MZB_LO_10",7.59256317081823,48.9186020643573,"2041650",NA
100000013,"France_2",2,"2045150","France","SAUER","Mathieu Floury",7.75710979,49.04431811,"multi-habitat sampling","Ind/0.4m≤","FRA_016_MZB_LO","FRA_016_MZB_LO_11",7.75710978985196,49.0443181124372,"2045150",NA
100000014,"France_2",2,"2047500","France","LAUTER","Mathieu Floury",7.902803052,49.04319903,"multi-habitat sampling","Ind/0.4m≤","FRA_016_MZB_LO","FRA_016_MZB_LO_12",7.90280305159197,49.043199034223,"2047500",NA
100000015,"France_2",2,"2049900","France","CLEURIE","Mathieu Floury",6.703332127,48.05790591,"multi-habitat sampling","Ind/0.4m≤","FRA_016_MZB_LO","FRA_016_MZB_LO_13",6.70333212656342,48.0579059054014,"2049900",NA
100000016,"France_2",2,"2051600","France","NEUNE","Mathieu Floury",6.760989544,48.18509979,"multi-habitat sampling","Ind/0.4m≤","FRA_016_MZB_LO","FRA_016_MZB_LO_14",6.76098954353283,48.1850997911147,"2051600",NA
100000017,"France_2",2,"2057600","France","BRENON","Mathieu Floury",6.139495842,48.53057291,"multi-habitat sampling","Ind/0.4m≤","FRA_016_MZB_LO","FRA_016_MZB_LO_15",6.1394958418254,48.5305729144039,"2057600",NA
100000018,"France_2",2,"2061500","France","MEURTHE","Mathieu Floury",6.975323307,48.18445676,"multi-habitat sampling","Ind/0.4m≤","FRA_016_MZB_LO","FRA_016_MZB_LO_16",6.9753233067608,48.1844567568641,"2061500",NA
100000019,"France_2",2,"2067600","France","VERDURETTE","Mathieu Floury",6.729182665,48.53977465,"multi-habitat sampling","Ind/0.4m≤","FRA_016_MZB_LO","FRA_016_MZB_LO_17",6.72918266476503,48.5397746486309,"2067600",NA
100000020,"France_2",2,"2067800","France","VEZOUZE","Mathieu Floury",6.628408377,48.57951326,"multi-habitat sampling","Ind/0.4m≤","FRA_016_MZB_LO","FRA_016_MZB_LO_18",6.62840837741298,48.5795132628026,"2067800",NA
100000021,"France_2",2,"2068800","France","MORTAGNE","Mathieu Floury",6.584674714,48.39720343,"multi-habitat sampling","Ind/0.4m≤","FRA_016_MZB_LO","FRA_016_MZB_LO_19",6.58467471427296,48.3972034264568,"2068800",NA
100000022,"France_2",2,"2077200","France","RUPT DE MAD","Mathieu Floury",5.80552266,48.90726421,"multi-habitat sampling","Ind/0.4m≤","FRA_016_MZB_LO","FRA_016_MZB_LO_20",5.8055226596349,48.9072642120737,"2077200",NA
100000023,"France_2",2,"2081000","France","SEILLE","Mathieu Floury",6.669578399,48.79639989,"multi-habitat sampling","Ind/0.4m≤","FRA_016_MZB_LO","FRA_016_MZB_LO_21",6.6695783991103,48.7963998883862,"2081000",NA
100000024,"France_2",2,"2099800","France","BLIES","Mathieu Floury",7.08033113,49.14902585,"multi-habitat sampling","Ind/0.4m≤","FRA_016_MZB_LO","FRA_016_MZB_LO_22",7.08033112999602,49.1490258535362,"2099800",NA
100000025,"France_2",2,"2100600","France","HORN","Mathieu Floury",7.472288499,49.12728909,"multi-habitat sampling","Ind/0.4m≤","FRA_016_MZB_LO","FRA_016_MZB_LO_23",7.47228849928921,49.1272890878511,"2100600",NA
100000026,"France_2",2,"2106500","France","MEUSE","Mathieu Floury",5.543815146,48.06819812,"multi-habitat sampling","Ind/0.4m≤","FRA_016_MZB_LO","FRA_016_MZB_LO_24",5.54381514558264,48.0681981212224,"2106500",NA
100000027,"France_2",2,"2106600","France","MEUSE","Mathieu Floury",5.614143274,48.24112566,"multi-habitat sampling","Ind/0.4m≤","FRA_016_MZB_LO","FRA_016_MZB_LO_25",5.61414327424161,48.2411256621627,"2106600",NA
100000028,"France_2",2,"2106900","France","VAIR","Mathieu Floury",5.733337764,48.40248554,"multi-habitat sampling","Ind/0.4m≤","FRA_016_MZB_LO","FRA_016_MZB_LO_26",5.73333776397051,48.4024855364354,"2106900",NA
